~Version Information
VERS.                      2.0: CWLS Log ASCII Standard - VERSION 2.0
WRAP.                       NO: One line per depth step
~Well Information Block
STRT.FT                 0.0000: START DEPTH
STOP.FT             10100.0000: STOP DEPTH
STEP.FT                 0.5000: STEP
NULL.                -999.2500: NULL VALUE
COMP.          Marathon Oil Company: COMPANY
WELL.          Packineau USA 21-3H: WELL
FLD.               Reunion Bay: FIELD
LOC.           LOT 3--405' FNL & 2237' FWL----: LOCATION
CNTY.                Mountrail: COUNTY
DATE.          Wed Feb 11 13-14-57 2015: LOG DATE
UWI.              33-061-03367: UNIQUE WELL ID
STAT.                       ND: STATE
~Curve Information Block
DEPT.FT            0 000 00 00: Depth
TT3FT.USEC                   0: 3FT Travel Time
GK1.GAPI                     0: Gamma Ray
CCL.                         0: Casing Collar Locator
BONDIX.                      0: Bond Index
AMPMIN.                      0: Minimum Sector Amplitude
AMPMAX.                      0: Maximum Sector Amplitude
AMPAVG.                      0: Average Sector Amplitude
AMP3FT.MV                    0: AMP3FT Amplitude
~Parameter Information Block
~A  Depth      TT3FT        GK1         CCL        BONDIX      AMPMIN      AMPMAX      AMPAVG      AMP3FT   
# ...
  8700.0000    289.5681      8.9403      0.0000      0.2375     27.3527     31.7561     29.4863     28.7839
  8700.5000    289.6394     11.5799      0.0000      0.2332     28.0768     31.9833     30.0419     29.3315
  8701.0000    289.6029     13.0443      0.0000      0.2267     29.0934     32.8497     30.9431     30.1810
  8701.5000    289.6031     13.4079      0.0000      0.2188     30.2896     33.9979     32.0223     31.2554
  8702.0000    289.7285     15.1660      0.0000      0.2127     31.1150     34.5554     32.7141     32.1078
  8702.5000    289.8987     19.0519      0.0000      0.2101     31.7030     34.5627     33.0624     32.4748
  8703.0000    289.9805     22.8237      0.0000      0.2103     31.7783     34.3831     33.0537     32.4423
  8703.5000    290.0476     23.0552      0.0000      0.2119     31.5639     34.1941     32.8457     32.2203
  8704.0000    290.0905     21.9535      0.0000      0.2129     31.4191     34.0393     32.6606     32.0782
  8704.5000    290.1305     23.2289      0.0000      0.2131     31.5089     33.8101     32.6848     32.0397
  8705.0000    290.2160     25.8194      0.0000      0.2150     31.4799     33.1752     32.3936     31.7734
  8705.5000    290.3009     25.7408      0.0000      0.2181     31.2453     32.4293     32.0293     31.3442
  8706.0000    290.2903     21.9127      0.0000      0.2213     30.6966     32.5801     31.6481     30.9091
  8706.5000    290.1660     16.2392      0.0000      0.2303     28.8313     31.8688     30.4085     29.7044
  8707.0000    290.3540     12.5429      0.0000      0.2526     25.4607     29.3163     27.4429     26.9310
  8707.5000    292.9689     13.4376      0.0000      0.2862     21.8293     25.2514     23.5116     23.2194
  8708.0000    302.2291     14.4231      0.0000      0.3471     16.5493     19.6839     18.0198     17.7585
  8708.5000    316.2527     12.1174      0.0000      0.4543      9.6890     13.2573     11.3309     11.0722
  8709.0000    326.6016      9.7072      0.0000      0.5758      4.7923      9.5230      6.8076      6.4814
  8709.5000    329.9954     10.3871      6.5271      0.6777      3.1874      7.7548      4.8049      4.1372
  8710.0000    325.6990     11.8819      0.0000      0.6248      4.9658      7.9432      6.2696      5.2235
  8710.5000    316.3023     11.0256      0.0000      0.5250      8.1408     10.5535      9.3056      8.1093
  8711.0000    304.1176     12.2672      0.0000      0.4248     12.1660     15.0244     13.3736     12.6083
  8711.5000    295.5133     15.6270      0.0000      0.3815     12.4375     19.3199     15.5406     15.2574
  8712.0000    292.5364     15.7476      0.0000      0.3739     11.0594     21.5772     15.9266     15.7783
  8712.5000    291.9609     13.7391      0.0000      0.3707     10.6684     22.6455     16.1635     16.0033
  8713.0000    291.8384     12.2400      0.0000      0.3691     10.4821     23.0390     16.2549     16.1128
  8713.5000    291.4955     14.1369      0.0000      0.3610     10.7677     23.7025     16.7569     16.7048
  8714.0000    291.0452     16.4447      0.0000      0.3373     12.5430     25.4285     18.5250     18.5369
  8714.5000    290.4292     15.9964      0.0000      0.2986     16.4320     28.4280     22.0269     21.9851
  8715.0000    290.1152     15.9606      0.0000      0.2642     20.9199     31.3375     25.8117     25.5873
  8715.5000    290.1111     16.1291      0.0000      0.2427     24.4675     32.7965     28.4479     28.1298
  8716.0000    290.2260     14.7301      0.0000      0.2309     26.8604     33.0552     29.9052     29.6245
  8716.5000    290.2835     13.2095      0.0000      0.2271     27.9840     32.7853     30.4304     30.1247
  8717.0000    290.1924     14.5527      0.0000      0.2344     26.8946     32.2708     29.5797     29.1805
  8717.5000    290.1317     17.0533      0.0000      0.2497     24.2626     31.4528     27.7551     27.2773
  8718.0000    289.9838     17.1397      0.0000      0.2638     22.2856     30.3424     26.1234     25.6346
  8718.5000    289.8611     15.3973      0.0000      0.2780     20.9075     28.8525     24.6012     24.0748
  8719.0000    292.9508     16.6192      0.0000      0.3050     18.3439     26.2044     21.8934     21.3754
  8719.5000    300.7012     19.2762      0.0000      0.3467     14.6318     22.3784     18.1347     17.7910
  8720.0000    311.9893     17.4044      0.0000      0.4009     11.0346     17.8806     14.1762     14.0083
  8720.5000    324.3575     15.3562      0.0000      0.4567      8.9924     13.2787     10.9991     10.9538
  8721.0000    333.4130     20.4849      0.0000      0.5060      8.5827      9.2728      8.8659      8.8168
  8721.5000    343.4352     26.9726      0.0000      0.5675      5.9950      7.8440      6.8591      6.7241
  8722.0000    353.0611     29.0084      0.0000      0.6426      3.9492      6.2735      5.0283      4.8298
  8722.5000    355.1176     28.3349      0.0000      0.7086      2.9351      4.6503      3.8545      3.6104
  8723.0000    346.3919     28.3752      0.0000      0.6995      3.3305      4.3430      3.9628      3.7584
  8723.5000    336.6211     31.6506      0.0000      0.6413      4.6639      5.3445      5.0943      4.8565
  8724.0000    331.4814     35.0014      0.0000      0.5854      6.2204      6.7028      6.4371      6.2150
  8724.5000    330.9188     33.3944      0.0000      0.5385      7.6414      8.1778      7.8207      7.6417
  8725.0000    330.8269     29.5495      0.0000      0.5065      8.6696      9.4374      9.0776      8.7960
  8725.5000    329.7248     26.6667      0.0000      0.4710      9.9069     11.0829     10.7059     10.2848
  8726.0000    322.5534     22.4650      0.0000      0.4206     11.9070     14.3627     13.3231     12.8422
  8726.5000    308.3233     17.8377      0.0000      0.3601     15.1528     19.2594     17.2355     16.7669
  8727.0000    296.6954     15.2601      0.0000      0.3105     18.8195     23.8588     21.2584     20.8633
  8727.5000    291.4677     16.0602      0.0000      0.2797     21.6360     26.9838     24.1829     23.8942
  8728.0000    291.4251     18.4168      0.0000      0.2689     22.5780     28.1979     25.2913     25.0604
  8728.5000    291.6344     21.6953      0.0000      0.2698     22.1704     28.1391     25.1731     24.9627
  8729.0000    291.7910     23.4568      0.0000      0.2727     21.9652     27.6590     24.8343     24.6490
  8729.5000    291.6993     23.3931      0.0000      0.2712     22.6202     27.6250     25.0284     24.8088
  8730.0000    291.4201     22.9349      0.0000      0.2655     23.6755     28.2165     25.7210     25.4422
  8730.5000    291.2224     21.8176      0.0000      0.2648     23.8402     28.2289     25.8301     25.5162
  8731.0000    291.1989     22.0611      0.0000      0.2726     22.8507     27.2967     24.9985     24.6520
  8731.5000    291.1726     21.8049      0.0000      0.2866     21.6869     25.7357     23.5934     23.1839
  8732.0000    290.7676     18.8941      0.0000      0.2971     21.1416     24.2862     22.5683     22.1302
  8732.5000    290.5718     14.2571      0.0000      0.3145     19.0663     22.8280     20.8657     20.5022
  8733.0000    290.5251     11.2412      0.0000      0.3357     16.7550     21.4187     18.8957     18.6671
  8733.5000    291.2490     11.6667      0.0000      0.3603     14.4547     19.9816     16.9599     16.7521
  8734.0000    292.3742     13.2756      0.0000      0.3757     13.6679     18.6884     15.9696     15.6570
  8734.5000    293.4899     12.6947      0.0000      0.3794     14.3339     17.7495     15.8549     15.3995
  8735.0000    293.9628     10.5843      0.0000      0.3712     15.8454     17.5191     16.4996     15.9648
  8735.5000    293.3043      8.7130      0.0000      0.3527     17.0736     18.8986     17.7992     17.3263
  8736.0000    292.0600      7.8578      0.0000      0.3285     17.8026     21.8392     19.6076     19.2709
  8736.5000    291.0196     11.5752      0.0000      0.3043     18.8438     25.0851     21.7153     21.4435
  8737.0000    290.4133     18.3545      0.0000      0.2823     21.2043     27.2941     23.9942     23.6249
