~Version Information
VERS.                      2.0: CWLS Log ASCII Standard - VERSION 2.0
WRAP.                       NO: One line per depth step
~Well Information Block
STRT.FT                 0.0000: START DEPTH
STOP.FT             10100.0000: STOP DEPTH
STEP.FT                 0.5000: STEP
NULL.                -999.2500: NULL VALUE
COMP.          Marathon Oil Company: COMPANY
WELL.          Packineau USA 21-3H: WELL
FLD.               Reunion Bay: FIELD
LOC.           LOT 3--405' FNL & 2237' FWL----: LOCATION
CNTY.                Mountrail: COUNTY
DATE.          Wed Feb 11 13-14-57 2015: LOG DATE
UWI.              33-061-03367: UNIQUE WELL ID
STAT.                       ND: STATE
~Curve Information Block
DEPT.FT            0 000 00 00: Depth
TT3FT.USEC                   0: 3FT Travel Time
GK1.GAPI                     0: Gamma Ray
CCL.                         0: Casing Collar Locator
BONDIX.                      0: Bond Index
AMPMIN.                      0: Minimum Sector Amplitude
AMPMAX.                      0: Maximum Sector Amplitude
AMPAVG.                      0: Average Sector Amplitude
AMP3FT.MV                    0: AMP3FT Amplitude
~Parameter Information Block
~A  Depth      TT3FT        GK1         CCL        BONDIX      AMPMIN      AMPMAX      AMPAVG      AMP3FT   
# ...
  4687.5000    291.7110     95.0181      0.0000      0.3249     17.4384     21.9014     19.5509     19.5788
  4688.0000    291.7726     93.2595      0.0000      0.3293     17.0352     21.9822     19.3317     19.2029
  4688.5000    291.8815     98.8010      0.0000      0.3333     16.7616     22.0450     19.2051     18.8654
  4689.0000    291.8795    106.4311      0.0000      0.3353     16.5398     21.9373     19.0360     18.7027
  4689.5000    291.8712    110.2576      0.0000      0.3389     16.2317     21.6651     18.7485     18.4126
  4690.0000    292.1571    111.8500      0.0000      0.3496     15.2208     20.7376     17.8234     17.5602
  4690.5000    292.7981    107.3649      0.0000      0.3669     14.0284     19.6964     16.6960     16.2697
  4691.0000    293.4177     99.9590      0.0000      0.3814     13.4725     19.2237     16.0942     15.2633
  4691.5000    293.7331     99.8251      0.0000      0.3883     13.5334     19.2896     16.0820     14.8105
  4692.0000    293.8246    107.2687      0.0000      0.3894     12.7002     18.7332     15.4931     14.7394
  4692.5000    293.6187    109.8753      0.0000      0.3852     12.5700     18.3914     15.3764     15.0147
  4693.0000    293.2581    102.7060      0.0000      0.3774     13.1154     18.9126     15.7696     15.5356
  4693.5000    292.9868     98.7010      0.0000      0.3690     13.8153     19.7383     16.4692     16.1246
  4694.0000    293.0117    104.7570      0.0000      0.3670     13.8009     19.7742     16.5154     16.2637
  4694.5000    293.1346    118.3930      0.0000      0.3709     13.2191     19.5528     16.1520     15.9914
  4695.0000    293.1070    127.3502      0.0000      0.3724     12.9513     19.7353     16.0911     15.8819
  4695.5000    293.0491    125.7366      0.0000      0.3684     13.2133     20.2679     16.4805     16.1690
  4696.0000    293.0105    113.4277      0.0000      0.3633     13.5791     20.6927     16.8951     16.5360
  4696.5000    293.1000     97.5294      0.0000      0.3621     13.6540     20.6598     16.9221     16.6189
  4697.0000    293.1858     93.0257      0.0000      0.3640     13.5474     20.3786     16.7149     16.4798
  4697.5000    293.1902     94.7793      0.0000      0.3655     13.5186     20.0854     16.5573     16.3733
  4698.0000    293.0394     92.3586      0.0000      0.3637     13.7318     20.0585     16.6570     16.5035
  4698.5000    292.7335     85.6582      0.0000      0.3574     14.3107     20.4414     17.0946     16.9711
  4699.0000    292.4654     85.6871      0.0000      0.3522     14.9011     20.9650     17.5899     17.3648
  4699.5000    292.3603     91.6299      0.0000      0.3519     15.0278     21.0009     17.6953     17.3855
  4700.0000    292.6597     92.3574      0.0000      0.3596     14.5324     20.2799     17.1601     16.8024
  4700.5000    292.8475     88.5423      0.0000      0.3648     14.2099     19.5678     16.6919     16.4265
  4701.0000    292.9606     88.1618      0.0000      0.3673     14.0342     19.1070     16.3954     16.2430
  4701.5000    293.0373     92.4453      0.0000      0.3706     13.8009     18.7570     16.1137     16.0122
  4702.0000    293.0757     96.0412      0.0000      0.3745     13.5013     18.3740     15.8087     15.7369
  4702.5000    292.9326     98.1635      0.0000      0.3735     13.6310     18.3471     15.8669     15.8079
  4703.0000    292.8513    104.2942      0.0000      0.3711     13.9506     18.4249     16.0830     15.9737
  4703.5000    293.0896    108.7125      0.0000      0.3709     14.1033     18.5356     16.1722     15.9914
  4704.0000    297.8540    104.1954      0.0000      0.3780     13.6713     18.2693     15.7739     15.4942
  4704.5000    308.8346     97.2241      0.0000      0.3962     12.5624     17.5423     14.7467     14.3014
  4705.0000    322.9438     92.2195      0.0000      0.4257     10.9121     15.7113     13.0224     12.5610
  4705.5000    335.6862     92.0094      0.0000      0.4699      9.2071     12.4621     10.6462     10.3381
  4706.0000    340.5534     99.9835    -17.7136      0.4859      8.8903     10.9273      9.7983      9.6337
  4706.5000    340.7444    108.6445      0.0000      0.4890      8.9587     10.5626      9.7377      9.5005
  4707.0000    332.5180    113.3845      0.0000      0.4620      9.8555     12.3323     11.0687     10.7022
  4707.5000    316.1218    118.2946      0.0000      0.4109     11.2824     14.9129     13.2499     13.4075
  4708.0000    301.5066    116.4645      0.0000      0.3761     12.2004     16.7434     14.8018     15.6274
  4708.5000    293.9954    108.3237      0.0000      0.3591     13.2062     18.4088     16.0763     16.8409
  4709.0000    293.1589    101.8400      0.0000      0.3595     13.7303     19.2053     16.5396     16.8143
  4709.5000    293.2335     96.9336      0.0000      0.3578     14.3937     20.1466     17.1674     16.9415
  4710.0000    293.1494     91.2805      0.0000      0.3529     14.9694     20.4710     17.6052     17.3115
  4710.5000    292.8547     89.4506      0.0000      0.3441     15.7661     20.8185     18.2152     17.9923
  4711.0000    292.6039     91.7859      0.0000      0.3369     16.5175     20.9286     18.7196     18.5724
  4711.5000    292.4390     92.4951      0.0000      0.3325     17.0204     20.9111     19.0229     18.9365
  4712.0000    292.5064     92.3057      0.0000      0.3332     16.9992     20.6598     18.8918     18.8773
  4712.5000    292.7585     94.0246      0.0000      0.3383     16.5023     20.1961     18.3959     18.4570
  4713.0000    293.1014     93.7876      0.0000      0.3475     15.9479     19.5210     17.7462     17.7259
  4713.5000    293.4025     94.3901      0.0000      0.3559     15.5934     18.8027     17.1444     17.0777
  4714.0000    293.4419     95.2378      0.0000      0.3583     15.5844     18.4783     16.9637     16.9031
  4714.5000    293.2657     88.6849      0.0000      0.3556     15.5904     18.5420     17.0544     17.1073
  4715.0000    293.0713     80.9096      0.0000      0.3510     15.6964     18.8143     17.3068     17.4566
  4715.5000    292.9675     85.1575      0.0000      0.3461     16.0963     19.5181     17.7974     17.8384
  4716.0000    292.9583     97.1039      0.0000      0.3405     16.6023     20.0076     18.2703     18.2794
  4716.5000    293.0366    111.0259      0.0000      0.3391     16.8446     20.0394     18.4169     18.3919
  4717.0000    293.1778    119.1224      0.0000      0.3415     16.8053     19.6803     18.2667     18.2024
  4717.5000    293.2095    113.1867      0.0000      0.3434     16.7295     19.5789     18.1896     18.0485
  4718.0000    293.1545    108.8446      0.0000      0.3445     16.4932     19.7121     18.1852     17.9627
  4718.5000    293.1555    119.5651      0.0000      0.3481     16.0176     19.6575     17.9378     17.6785
  4719.0000    293.4062    133.4319      0.0000      0.3581     15.1754     19.1938     17.1276     16.9179
  4719.5000    293.9199    136.7264      0.0000      0.3719     14.1877     18.2454     16.0797     15.9204
  4720.0000    296.4899    127.1863      0.0000      0.3897     12.9850     16.8213     14.8215     14.7157
  4720.5000    303.7886    120.5491      0.0000      0.4065     11.9792     15.3763     13.7166     13.6650
  4721.0000    315.3904    126.0891      0.0000      0.4214     11.3006     14.3800     12.8436     12.8007
  4721.5000    323.3673    128.0279      0.0000      0.4326     10.8764     13.6617     12.1968     12.1851
  4722.0000    331.0045    123.7286      0.0000      0.4412     10.5098     13.4300     11.8236     11.7322
  4722.5000    334.0336    122.3013      0.0000      0.4462     10.1584     13.3170     11.6072     11.4747
  4723.0000    335.6212    121.2287      0.0000      0.4485      9.9771     13.2504     11.5265     11.3593
  4723.5000    332.3763    119.2255      0.0000      0.4425     10.1784     13.4242     11.7680     11.6612
  4724.0000    324.0939    118.2971      0.0000      0.4280     10.7553     13.9832     12.3950     12.4307
  4724.5000    312.3694    117.8349      0.0000      0.4070     11.8095     15.1649     13.5420     13.6384
