~Version Information
VERS.                      2.0: CWLS Log ASCII Standard - VERSION 2.0
WRAP.                       NO: One line per depth step
~Well Information Block
STRT.FT                 0.0000: START DEPTH
STOP.FT             10100.0000: STOP DEPTH
STEP.FT                 0.5000: STEP
NULL.                -999.2500: NULL VALUE
COMP.          Marathon Oil Company: COMPANY
WELL.          Packineau USA 21-3H: WELL
FLD.               Reunion Bay: FIELD
LOC.           LOT 3--405' FNL & 2237' FWL----: LOCATION
CNTY.                Mountrail: COUNTY
DATE.          Wed Feb 11 13-14-57 2015: LOG DATE
UWI.              33-061-03367: UNIQUE WELL ID
STAT.                       ND: STATE
~Curve Information Block
DEPT.FT            0 000 00 00: Depth
TT3FT.USEC                   0: 3FT Travel Time
GK1.GAPI                     0: Gamma Ray
CCL.                         0: Casing Collar Locator
BONDIX.                      0: Bond Index
AMPMIN.                      0: Minimum Sector Amplitude
AMPMAX.                      0: Maximum Sector Amplitude
AMPAVG.                      0: Average Sector Amplitude
AMP3FT.MV                    0: AMP3FT Amplitude
~Parameter Information Block
~A  Depth      TT3FT        GK1         CCL        BONDIX      AMPMIN      AMPMAX      AMPAVG      AMP3FT   
# ...
  8025.0000    329.0919     55.4156      0.0000      0.4528      9.6921     12.7657     11.1705     11.1432
  8025.5000    325.9804     52.7571      0.0000      0.4436     10.5377     12.9268     11.6201     11.6079
  8026.0000    315.2959     54.4357      0.0000      0.4276     11.4142     13.7799     12.5263     12.4544
  8026.5000    304.4619     61.7423      0.0000      0.4084     12.2504     15.3364     13.7889     13.5555
  8027.0000    296.5406     63.4473      0.0000      0.3890     13.3530     16.8562     15.0941     14.7601
  8027.5000    292.9021     57.2378      0.0000      0.3714     14.5331     18.0850     16.2496     15.9500
  8028.0000    292.6063     46.4930      0.0000      0.3625     15.2454     18.5794     16.8355     16.5923
  8028.5000    292.5711     38.0498      0.0000      0.3541     15.9671     19.2404     17.5402     17.2139
  8029.0000    292.9622     39.1423      0.0000      0.3536     16.0631     19.4749     17.6478     17.2523
  8029.5000    293.5808     47.2138      0.0000      0.3622     15.1719     19.1020     17.0880     16.6100
  8030.0000    293.6718     57.5578      0.0000      0.3677     14.7777     18.9862     16.8476     16.2164
  8030.5000    293.2699     64.0610      0.0000      0.3675     15.2526     19.0738     17.1333     16.2312
  8031.0000    295.9983     65.2413      0.0000      0.3697     15.5551     18.5483     17.0280     16.0713
  8031.5000    302.2042     65.0176      0.0000      0.3862     14.4432     16.8449     15.5666     14.9436
  8032.0000    308.5852     63.2837      0.0000      0.4076     12.2428     14.7262     13.5011     13.6028
  8032.5000    313.3559     59.2471      0.0000      0.4295     10.3008     12.8166     11.7441     12.3508
  8033.0000    318.2425     56.1627      0.0000      0.4487      9.4556     11.6216     10.7400     11.3474
  8033.5000    325.4932     59.3220      0.0000      0.4699      9.0466     11.1273     10.1565     10.3352
  8034.0000    329.4090     62.6472      0.0000      0.4791      8.8285     11.1584      9.9909      9.9267
  8034.5000    330.5316     62.3636      0.0000      0.4804      8.9054     11.2092     10.0428      9.8705
  8035.0000    330.8186     63.0656      0.0000      0.4639     10.0009     11.6668     10.8374     10.6134
  8035.5000    326.7882     59.8850      0.0000      0.4363     11.5126     12.9492     12.3033     11.9838
  8036.0000    316.2834     47.7595      0.0000      0.4101     12.8941     14.5943     13.8086     13.4548
  8036.5000    302.5396     36.3276      0.0000      0.3905     13.8242     16.3118     15.0115     14.6654
  8037.0000    294.8179     30.2156      0.0000      0.3816     13.8610     17.4182     15.6303     15.2544
  8037.5000    298.2121     31.6563      0.0000      0.3895     13.2539     16.9579     15.1442     14.7276
  8038.0000    304.7042     40.6564      0.0000      0.3989     12.9783     16.1528     14.5003     14.1326
  8038.5000    312.6633     49.2568      0.0000      0.4127     12.3681     15.0906     13.6084     13.3009
  8039.0000    317.1863     53.6750      0.0000      0.4336     11.0982     14.0821     12.5422     12.1288
  8039.5000    324.3594     58.2275      0.0000      0.4659      9.4474     12.7912     11.2257     10.5216
  8040.0000    332.4612     58.6355      0.0000      0.4503      8.8618     12.9977     10.7739     11.2675
  8040.5000    336.9233     51.6273      0.0000      0.3837      7.6894     17.2192     11.6768     15.1124
  8041.0000    338.6466     44.1729      0.0000      0.3229      7.5349     22.4370     13.5729     19.7534
  8041.5000    331.5426     35.9608      0.0000      0.3668      8.2438     17.8624     12.2859     16.2785
  8042.0000    330.2320     30.3179      0.0000      0.4287      9.4132     12.7494     11.0536     12.3952
  8042.5000    329.2947     34.7174      0.0000      0.4619      9.4796     12.3623     10.8651     10.7051
  8043.0000    327.4099     42.2997      0.0000      0.4509      9.6721     13.4783     11.4921     11.2409
  8043.5000    324.3805     46.6806      0.0000      0.4475      9.7931     13.6414     11.6360     11.4096
  8044.0000    327.6530     49.1556      0.0000      0.4684      9.0948     12.1458     10.5880     10.4032
  8044.5000    330.9402     48.4093      0.0000      0.5049      8.0457     10.0595      9.0108      8.8612
  8045.0000    332.4406     48.5879      0.0000      0.5438      6.8458      8.3787      7.5874      7.4641
  8045.5000    332.1975     53.1007      0.0000      0.5674      6.0932      7.4400      6.8048      6.7271
  8046.0000    332.0961     59.6065      0.0000      0.5751      5.9971      7.1813      6.6057      6.5021
  8046.5000    332.1463     57.8360      0.0000      0.5806      6.0718      6.9002      6.4685      6.3453
  8047.0000    332.0144     56.5966      0.0000      0.5943      5.6590      6.5404      6.0720      5.9753
  8047.5000    331.6101     64.8642      0.0000      0.6042      5.2600      6.4055      5.7892      5.7207
  8048.0000    331.7979     70.1402      0.0000      0.6107      4.9720      6.1749      5.5625      5.5580
  8048.5000    333.0109     68.1497      0.0000      0.6071      5.1392      6.0569      5.6009      5.6468
  8049.0000    334.0904     60.4323      0.0000      0.5948      5.5414      6.2452      5.8616      5.9605
  8049.5000    334.3048     49.3428      0.0000      0.5746      6.0261      6.8721      6.3706      6.5169
  8050.0000    331.9207     36.5837      0.0000      0.5303      7.1410      8.0472      7.5811      7.9229
  8050.5000    323.3495     27.2511      0.0000      0.4745      8.9799     10.3050      9.5561     10.1309
  8051.0000    309.0980     25.4634      0.0000      0.4245     11.6005     13.1742     12.1355     12.6261
  8051.5000    298.5501     27.4335      0.0000      0.3997     13.6424     14.9274     14.0221     14.0823
  8052.0000    293.7021     28.7013      0.0000      0.3846     14.6391     16.2409     15.2225     15.0532
  8052.5000    297.6837     28.2423      0.0000      0.3782     14.6816     16.9260     15.7644     15.4794
  8053.0000    308.2536     27.5382      0.0000      0.3896     13.5000     16.3640     14.9639     14.7217
  8053.5000    326.5534     26.8572      0.0000      0.4316     11.0946     13.7978     12.4831     12.2383
  8054.0000    342.4232     27.4280      0.0000      0.4910      8.5437     10.8117      9.7031      9.4176
  8054.5000    347.4927     29.7305      0.0000      0.5459      6.6320      8.7350      7.6653      7.3960
  8055.0000    347.3503     32.9639      0.0000      0.6183      4.7840      6.6294      5.6449      5.3744
  8055.5000    341.6487     38.9390      0.0000      0.6416      4.1811      6.1747      5.1285      4.8506
  8056.0000    339.0176     44.9162      0.0000      0.6282      4.3680      6.5222      5.4707      5.1465
  8056.5000    335.9621     48.2116      0.0000      0.5556      6.2387      8.4773      7.4380      7.0852
  8057.0000    332.2853     51.3577      0.0000      0.4995      8.2024     10.3541      9.3923      9.0743
  8057.5000    329.5943     52.1891      0.0000      0.4733      9.3112     11.6132     10.4899     10.1812
  8058.0000    325.7531     53.9137      0.0000      0.4484     10.3147     13.1330     11.6848     11.3652
  8058.5000    316.8633     54.7275      0.0000      0.4278     11.1323     14.7262     12.9026     12.4426
  8059.0000    302.6888     50.5059      0.0000      0.4024     12.2845     16.3986     14.3871     13.9195
  8059.5000    294.8606     48.3568      0.0000      0.3884     13.0278     16.8958     14.9780     14.8016
  8060.0000    293.1169     47.9779      0.0000      0.3796     13.5031     16.9297     15.2381     15.3847
  8060.5000    297.7456     46.2070      0.0000      0.3901     13.3809     16.3279     14.7091     14.6921
  8061.0000    308.6696     46.3534      0.0000      0.4247     11.6403     14.2545     12.7925     12.6142
  8061.5000    322.4561     49.4195      0.0000      0.4748      9.2833     11.5087     10.2898     10.1161
  8062.0000    330.0870     51.9857      0.0000      0.5084      7.8741      9.6866      8.7048      8.7220
