~Version Information
VERS.                      2.0: CWLS Log ASCII Standard - VERSION 2.0
WRAP.                       NO: One line per depth step
~Well Information Block
STRT.FT                 0.0000: START DEPTH
STOP.FT             10100.0000: STOP DEPTH
STEP.FT                 0.5000: STEP
NULL.                -999.2500: NULL VALUE
COMP.          Marathon Oil Company: COMPANY
WELL.          Packineau USA 21-3H: WELL
FLD.               Reunion Bay: FIELD
LOC.           LOT 3--405' FNL & 2237' FWL----: LOCATION
CNTY.                Mountrail: COUNTY
DATE.          Wed Feb 11 13-14-57 2015: LOG DATE
UWI.              33-061-03367: UNIQUE WELL ID
STAT.                       ND: STATE
~Curve Information Block
DEPT.FT            0 000 00 00: Depth
TT3FT.USEC                   0: 3FT Travel Time
GK1.GAPI                     0: Gamma Ray
CCL.                         0: Casing Collar Locator
BONDIX.                      0: Bond Index
AMPMIN.                      0: Minimum Sector Amplitude
AMPMAX.                      0: Maximum Sector Amplitude
AMPAVG.                      0: Average Sector Amplitude
AMP3FT.MV                    0: AMP3FT Amplitude
~Parameter Information Block
~A  Depth      TT3FT        GK1         CCL        BONDIX      AMPMIN      AMPMAX      AMPAVG      AMP3FT   
# ...
  3337.5000    289.5160     49.8851      0.0000      0.2233     28.5882     32.8819     30.6755     30.6427
  3338.0000    289.4533     47.6305      0.0000      0.2169     29.5266     33.5571     31.4635     31.5159
  3338.5000    289.3515     43.7827      0.0000      0.2075     31.3323     34.5034     32.7796     32.8507
  3339.0000    289.2623     44.8737      0.0000      0.1974     32.8982     35.7746     34.3918     34.3425
  3339.5000    289.2436     49.3197      0.0000      0.1892     34.0191     37.0872     35.7529     35.6034
  3340.0000    289.2070     55.9087      0.0000      0.1831     35.2188     38.2130     36.7328     36.5713
  3340.5000    289.1732     62.3861      0.0000      0.1783     36.4125     38.5212     37.4056     37.3497
  3341.0000    289.1032     62.5796      0.0000      0.1750     37.1613     38.7150     37.8857     37.9062
  3341.5000    289.0645     57.9650      0.0000      0.1766     36.8268     38.5007     37.6510     37.6368
  3342.0000    289.0639     53.4816      0.0000      0.1817     35.8944     38.2371     37.0406     36.8051
  3342.5000    289.1403     51.7864      0.0000      0.1872     34.3372     38.2081     36.2405     35.9231
  3343.0000    289.3568     54.3502      0.0000      0.1932     32.4498     37.9069     35.1891     34.9789
  3343.5000    290.2849     55.1811      0.0000      0.2050     30.1595     36.2212     33.2833     33.2148
  3344.0000    292.9669     54.3398      0.0000      0.2235     27.7813     33.3278     30.6455     30.6101
  3344.5000    296.0662     50.9660      0.0000      0.2413     25.9515     30.8370     28.4075     28.3074
  3345.0000    297.6483     43.6385      0.0000      0.2786     22.2191     26.3563     24.2108     24.0126
  3345.5000    297.4044     40.0560      0.0000      0.2910     21.2890     24.8676     22.9814     22.7369
  3346.0000    296.9771     45.9225      0.0000      0.2956     20.8861     24.0943     22.4485     22.2811
  3346.5000    296.8811     54.9782      0.0000      0.2683     23.3824     26.9068     25.1861     25.1315
  3347.0000    295.6384     59.4339      0.0000      0.2368     26.8603     30.7035     28.8452     28.8727
  3347.5000    292.5758     59.3323      0.0000      0.2102     30.4776     34.2112     32.4476     32.4571
  3348.0000    290.2093     57.8506      0.0000      0.1892     33.8434     37.3103     35.6398     35.6034
  3348.5000    289.2642     52.4725      0.0000      0.1830     34.9777     38.1936     36.6282     36.5890
  3349.0000    289.1806     45.1218      0.0000      0.1754     36.0215     39.6621     37.9117     37.8381
  3349.5000    289.1699     43.7826      0.0000      0.1764     35.7944     39.8127     37.8100     37.6723
  3350.0000    289.1875     46.8868      0.0000      0.1760     35.5097     40.0705     37.8126     37.7345
  3350.5000    289.2065     49.2028      0.0000      0.1762     35.3491     40.1689     37.7652     37.7108
  3351.0000    289.2038     51.9580      0.0000      0.1775     35.1098     40.0676     37.5708     37.4948
  3351.5000    289.1651     53.3865      0.0000      0.1784     35.1764     39.8677     37.4875     37.3408
  3352.0000    289.1369     51.4287      0.0000      0.1817     34.7977     39.4159     37.0640     36.7992
  3352.5000    289.1247     50.6041      0.0000      0.1879     33.4570     38.6513     36.1581     35.8165
  3353.0000    289.1432     55.7969      0.0000      0.1963     31.7288     37.5797     34.8123     34.5023
  3353.5000    289.2263     62.2755      0.0000      0.2040     30.8182     36.0910     33.5252     33.3628
  3354.0000    289.3249     61.8115      0.0000      0.2096     30.6974     34.7379     32.6452     32.5400
  3354.5000    289.4349     53.5802      0.0000      0.2166     30.2497     33.4667     31.8270     31.5484
  3355.0000    289.5139     43.5571      0.0000      0.2223     29.4458     32.6531     31.2798     30.7759
  3355.5000    289.5430     39.7988      0.0000      0.2210     29.4831     33.0552     31.3754     30.9505
  3356.0000    289.4393     43.3906      0.0000      0.2102     30.6873     34.5338     32.6070     32.4571
  3356.5000    289.2696     47.8856      0.0000      0.1964     32.5992     36.4060     34.5342     34.4964
  3357.0000    289.0510     51.3101      0.0000      0.1821     35.0139     38.3036     36.7157     36.7370
  3357.5000    288.9691     53.8367      0.0000      0.1713     36.9630     39.8594     38.4478     38.5218
  3358.0000    288.9529     52.5487      0.0000      0.1639     38.6119     40.6335     39.6891     39.7975
  3358.5000    288.9745     51.9202      0.0000      0.1606     39.4329     41.2557     40.2922     40.3865
  3359.0000    289.0012     56.4460      0.0000      0.1588     39.8441     41.7225     40.5901     40.7092
  3359.5000    288.9560     59.8495      0.0000      0.1573     40.0324     41.6626     40.8110     40.9755
  3360.0000    288.8907     56.8603      0.0000      0.1565     40.1052     41.6646     40.9939     41.1295
  3360.5000    288.8426     53.2760      0.0000      0.1562     39.9555     42.1474     41.1351     41.1827
  3361.0000    288.8302     51.3490      0.0000      0.1561     39.8623     42.5412     41.1920     41.2005
  3361.5000    288.8718     49.1350      0.0000      0.1549     39.9583     42.5969     41.3271     41.4047
  3362.0000    288.9561     48.7566      0.0000      0.1542     40.1052     42.9345     41.5305     41.5468
  3362.5000    289.0142     50.2160      0.0000      0.1529     40.3736     43.3464     41.8334     41.7836
  3363.0000    288.9717     52.7195      0.0000      0.1511     40.5967     43.8605     42.2377     42.1121
  3363.5000    288.9158     51.8152      0.0000      0.1491     40.6250     44.4149     42.5380     42.4762
  3364.0000    288.9131     47.8979      0.0000      0.1490     40.3199     44.5605     42.4570     42.5058
  3364.5000    288.9631     49.2786      0.0000      0.1502     40.0176     44.1610     42.0951     42.2720
  3365.0000    288.9944     50.8998      0.0000      0.1523     39.8566     43.3959     41.6375     41.8813
  3365.5000    289.0037     45.5572      0.0000      0.1549     39.5628     42.7920     41.2364     41.4166
  3366.0000    288.9712     41.4531      0.0000      0.1580     39.0939     42.3305     40.8182     40.8512
  3366.5000    288.9271     43.7779      0.0000      0.1594     38.7351     42.4443     40.6283     40.6085
  3367.0000    288.8940     46.3129      0.0000      0.1586     38.9119     42.7897     40.7752     40.7476
  3367.5000    288.8310     43.4090      0.0000      0.1563     39.4738     42.9139     41.1528     41.1590
  3368.0000    288.8517     42.1841      0.0000      0.1567     39.8142     42.4637     41.0945     41.0791
  3368.5000    288.8850     42.7329      0.0000      0.1592     39.3340     42.0487     40.7042     40.6381
  3369.0000    288.9436     45.3340      0.0000      0.1626     38.1758     41.8473     40.0826     40.0254
  3369.5000    289.0192     49.1536      0.0000      0.1664     37.0430     41.6522     39.4451     39.3654
  3370.0000    289.0915     49.3684      0.0000      0.1706     36.2633     41.0297     38.7521     38.6402
  3370.5000    289.0721     45.0562      0.0000      0.1728     36.0938     40.4040     38.3400     38.2791
  3371.0000    289.0474     39.7696      0.0000      0.1719     36.4554     40.1965     38.4215     38.4212
  3371.5000    289.0558     38.9512      0.0000      0.1707     36.8537     40.2740     38.6603     38.6254
  3372.0000    289.0275     43.5119      0.0000      0.1703     37.0571     40.4443     38.8406     38.6994
  3372.5000    288.9188     48.7121      0.0000      0.1720     36.8537     40.3514     38.6624     38.4093
  3373.0000    288.8615     50.0644      0.0000      0.1750     36.3424     39.9457     38.1780     37.9091
  3373.5000    288.9367     49.5300      0.0000      0.1782     35.8481     39.4129     37.6021     37.3675
  3374.0000    289.0360     49.7558      0.0000      0.1797     35.4752     39.1899     37.2787     37.1218
  3374.5000    289.0314     53.9220      0.0000      0.1798     35.1927     39.4129     37.2497     37.1070
