~Version Information
VERS.                      2.0: CWLS Log ASCII Standard - VERSION 2.0
WRAP.                       NO: One line per depth step
~Well Information Block
STRT.FT                 0.0000: START DEPTH
STOP.FT             10100.0000: STOP DEPTH
STEP.FT                 0.5000: STEP
NULL.                -999.2500: NULL VALUE
COMP.          Marathon Oil Company: COMPANY
WELL.          Packineau USA 21-3H: WELL
FLD.               Reunion Bay: FIELD
LOC.           LOT 3--405' FNL & 2237' FWL----: LOCATION
CNTY.                Mountrail: COUNTY
DATE.          Wed Feb 11 13-14-57 2015: LOG DATE
UWI.              33-061-03367: UNIQUE WELL ID
STAT.                       ND: STATE
~Curve Information Block
DEPT.FT            0 000 00 00: Depth
TT3FT.USEC                   0: 3FT Travel Time
GK1.GAPI                     0: Gamma Ray
CCL.                         0: Casing Collar Locator
BONDIX.                      0: Bond Index
AMPMIN.                      0: Minimum Sector Amplitude
AMPMAX.                      0: Maximum Sector Amplitude
AMPAVG.                      0: Average Sector Amplitude
AMP3FT.MV                    0: AMP3FT Amplitude
~Parameter Information Block
~A  Depth      TT3FT        GK1         CCL        BONDIX      AMPMIN      AMPMAX      AMPAVG      AMP3FT   
# ...
  2025.0000    286.6231     58.2825      0.0000      0.0534     60.3121     69.2851     64.8417     64.7550
  2025.5000    286.6561     57.6375      0.0000      0.0540     59.8145     69.4496     64.6756     64.6100
  2026.0000    286.6694     52.1838      0.0000      0.0541     59.4547     69.6948     64.6235     64.5774
  2026.5000    286.6658     49.3247      0.0000      0.0538     59.4069     69.8500     64.6789     64.6603
  2027.0000    286.6657     50.8044      0.0000      0.0537     59.6261     69.8717     64.7381     64.6810
  2027.5000    286.6870     53.2434      0.0000      0.0623     57.7905     67.0287     62.4126     62.2687
  2028.0000    287.7832     51.7202      0.0000      0.0677     56.5069     66.3304     61.1008     60.8213
  2028.5000    290.2613     44.1430      0.0000      0.0888     51.5666     61.3281     55.9120     55.4226
  2029.0000    293.4050     35.0757      0.0000      0.1193     45.3483     53.6510     49.2325     48.4521
  2029.5000    294.2894     31.2647      0.0000      0.1523     39.8075     46.2252     42.5415     41.8901
  2030.0000    293.9919     37.9336    -12.6672      0.1770     35.5110     41.2348     38.1273     37.5658
  2030.5000    294.0751     45.6846      0.0000      0.1627     37.2016     43.5535     40.3107     40.0106
  2031.0000    293.8414     42.8682      0.0000      0.1432     41.4802     46.4586     44.1535     43.6068
  2031.5000    292.1910     37.3430      0.0000      0.1014     49.8490     55.9106     53.2878     52.4331
  2032.0000    289.4265     35.2325      0.0000      0.0812     54.7600     61.0881     58.1924     57.3110
  2032.5000    287.3712     38.5751      0.0000      0.0670     58.3105     63.4408     61.4560     61.0137
  2033.0000    286.9458     44.4817      0.0000      0.0647     58.5495     64.6047     61.6301     61.6116
  2033.5000    286.9627     45.5636      0.0000      0.0697     56.6885     63.8598     60.2727     60.2797
  2034.0000    287.0317     48.4648      0.0000      0.0746     54.9765     63.0777     58.9764     58.9951
  2034.5000    287.0921     53.3853      0.0000      0.0784     53.7902     62.2303     57.9665     58.0154
  2035.0000    287.1421     55.0106      0.0000      0.0822     52.8007     61.2682     57.0239     57.0535
  2035.5000    287.1911     56.1885      0.0000      0.0859     51.9742     60.1757     56.1116     56.1181
  2036.0000    287.2372     62.9041      0.0000      0.0874     51.6931     59.5922     55.6949     55.7541
  2036.5000    287.2031     75.8370      0.0000      0.0857     52.1682     59.9119     56.0691     56.1655
  2037.0000    287.1166     83.6073      0.0000      0.0830     52.8569     60.7592     56.8107     56.8551
  2037.5000    287.0309     82.1472      0.0000      0.0803     53.6103     61.5227     57.5667     57.5418
  2038.0000    286.9968     81.3334      0.0000      0.0781     54.1838     62.3230     58.1552     58.0894
  2038.5000    286.9467     85.9772      0.0000      0.0751     54.5546     63.6424     58.9046     58.8708
  2039.0000    286.8838     92.9614      0.0000      0.0732     54.4953     64.6986     59.3880     59.3592
  2039.5000    286.8602     91.4783      0.0000      0.0729     54.0518     65.3056     59.5147     59.4273
  2040.0000    286.8749     85.0802      0.0000      0.0727     53.8117     65.6277     59.5799     59.4894
  2040.5000    286.8931     78.8932      0.0000      0.0724     53.7382     65.9281     59.6774     59.5693
  2041.0000    286.9204     72.2488      0.0000      0.0729     53.5913     66.0892     59.6531     59.4361
  2041.5000    286.9071     68.8701      0.0000      0.0738     53.4388     66.1945     59.5782     59.2053
  2042.0000    286.9029     70.7731      0.0000      0.0745     53.3738     66.1450     59.4878     59.0158
  2042.5000    286.9087     76.0908      0.0000      0.0751     53.1268     66.1264     59.3936     58.8649
  2043.0000    286.9314     83.0438      0.0000      0.0761     52.8203     65.9715     59.1703     58.5955
  2043.5000    286.9237     89.0295      0.0000      0.0763     52.7529     65.6773     59.0035     58.5393
  2044.0000    286.9227     89.5731      0.0000      0.0763     52.6657     65.3149     58.7992     58.5452
  2044.5000    286.9319     87.5172      0.0000      0.0762     52.6685     65.0145     58.6619     58.5867
  2045.0000    286.9658     86.0715      0.0000      0.0770     52.6376     64.7078     58.4595     58.3676
  2045.5000    287.0008     86.9488      0.0000      0.0783     52.6685     64.3176     58.2705     58.0509
  2046.0000    286.9962     85.4868      0.0000      0.0789     52.7891     63.8685     58.1837     57.8822
  2046.5000    287.0447     80.9167      0.0000      0.0799     52.5758     63.2608     57.8873     57.6365
  2047.0000    287.1448     75.4280      0.0000      0.0822     51.8702     62.5221     57.1229     57.0594
  2047.5000    287.2406     67.0497      0.0000      0.0872     50.9228     60.9423     55.8335     55.8044
  2048.0000    287.2668     59.2394      0.0000      0.0980     49.0197     57.7672     53.3188     53.2086
  2048.5000    287.3046     53.1112      0.0000      0.1159     45.8909     52.8261     49.3197     49.1773
  2049.0000    287.3595     48.1694      0.0000      0.1345     42.6918     48.2388     45.4501     45.3117
  2049.5000    287.4334     48.9100      0.0000      0.1472     40.6368     45.4175     43.0263     42.8491
  2050.0000    287.4639     49.6348      0.0000      0.1519     39.7069     44.6101     42.2104     41.9730
  2050.5000    287.4053     48.6920      0.0000      0.1517     39.1984     45.0715     42.2688     42.0085
  2051.0000    287.3050     52.1305      0.0000      0.1480     39.5148     45.9328     42.9537     42.6982
  2051.5000    287.2557     57.4364      0.0000      0.1405     40.8990     47.5870     44.3524     44.1189
  2052.0000    287.2595     59.1306      0.0000      0.1313     42.7143     49.6634     46.1642     45.9510
  2052.5000    287.2071     56.5457      0.0000      0.1240     43.7347     51.7305     47.7004     47.4576
  2053.0000    287.1310     55.4200      0.0000      0.1222     43.4199     52.9006     48.1153     47.8246
  2053.5000    287.1183     57.8330      0.0000      0.1266     42.1099     52.6523     47.2939     46.9219
  2054.0000    287.1693     53.4699      0.0000      0.1316     41.0034     51.6560     46.2348     45.8919
  2054.5000    287.2340     46.4449      0.0000      0.1344     40.7155     50.8708     45.5521     45.3295
  2055.0000    287.2436     50.1221      0.0000      0.1351     40.7380     50.5635     45.3562     45.1963
  2055.5000    287.2375     63.0746      0.0000      0.1367     40.7212     49.9024     45.0184     44.8737
  2056.0000    287.1970     73.6967      0.0000      0.1399     40.5356     48.7230     44.3663     44.2343
  2056.5000    287.2391     75.1722      0.0000      0.1452     39.7041     47.3822     43.3603     43.2309
  2057.0000    287.3664     71.9855      0.0000      0.1528     38.2634     45.8800     41.9177     41.8043
  2057.5000    287.5216     69.8635      0.0000      0.1659     35.9074     43.4994     39.5936     39.4453
  2058.0000    287.7155     67.0711      0.0000      0.1847     32.6082     40.5899     36.4535     36.3138
  2058.5000    287.9794     64.3843      0.0000      0.2062     29.2095     37.5670     33.1864     33.0313
  2059.0000    288.3988     63.7064      0.0000      0.2271     26.2603     34.8446     30.3327     30.1336
  2059.5000    288.8044     63.2152      0.0000      0.2453     23.9693     32.5309     28.0149     27.8042
  2060.0000    289.0858     64.0371      0.0000      0.2594     22.3394     30.7655     26.3134     26.1289
  2060.5000    289.3778     64.9573      0.0000      0.2729     20.9777     28.7740     24.6946     24.6224
  2061.0000    289.8480     63.8614      0.0000      0.2879     19.7009     26.6029     23.0723     23.0477
  2061.5000    290.3030     59.8408      0.0000      0.3013     18.7545     24.7662     21.7473     21.7276
  2062.0000    290.6000     56.2961      0.0000      0.3111     18.3110     23.3849     20.8159     20.8101
