~Version Information
VERS.                      2.0: CWLS Log ASCII Standard - VERSION 2.0
WRAP.                       NO: One line per depth step
~Well Information Block
STRT.FT                 0.0000: START DEPTH
STOP.FT             10100.0000: STOP DEPTH
STEP.FT                 0.5000: STEP
NULL.                -999.2500: NULL VALUE
COMP.          Marathon Oil Company: COMPANY
WELL.          Packineau USA 21-3H: WELL
FLD.               Reunion Bay: FIELD
LOC.           LOT 3--405' FNL & 2237' FWL----: LOCATION
CNTY.                Mountrail: COUNTY
DATE.          Wed Feb 11 13-14-57 2015: LOG DATE
UWI.              33-061-03367: UNIQUE WELL ID
STAT.                       ND: STATE
~Curve Information Block
DEPT.FT            0 000 00 00: Depth
TT3FT.USEC                   0: 3FT Travel Time
GK1.GAPI                     0: Gamma Ray
CCL.                         0: Casing Collar Locator
BONDIX.                      0: Bond Index
AMPMIN.                      0: Minimum Sector Amplitude
AMPMAX.                      0: Maximum Sector Amplitude
AMPAVG.                      0: Average Sector Amplitude
AMP3FT.MV                    0: AMP3FT Amplitude
~Parameter Information Block
~A  Depth      TT3FT        GK1         CCL        BONDIX      AMPMIN      AMPMAX      AMPAVG      AMP3FT   
# ...
  7387.5000    291.1705     34.9014      0.0000      0.3053     18.3140     26.1020     21.8818     21.3428
  7388.0000    291.1709     33.7007      0.0000      0.3028     18.5444     26.5238     22.1745     21.5796
  7388.5000    291.2288     28.7697      0.0000      0.3047     18.3169     26.2695     21.9661     21.4050
  7389.0000    291.1544     23.0547      0.0000      0.3062     18.2391     25.5365     21.7205     21.2659
  7389.5000    291.2397     22.6527      0.0000      0.3113     17.9108     24.2470     21.0655     20.7894
  7390.0000    291.4753     23.5710      0.0000      0.3185     17.5536     23.0324     20.3033     20.1382
  7390.5000    291.6947     21.0915      0.0000      0.3292     16.9287     22.0510     19.4136     19.2177
  7391.0000    291.8172     17.4433      0.0000      0.3388     16.5082     21.4467     18.8282     18.4185
  7391.5000    291.6566     18.2517      0.0000      0.3380     16.4765     21.7967     18.9398     18.4866
  7392.0000    291.4901     24.9369      0.0000      0.3299     16.8768     22.6494     19.5591     19.1555
  7392.5000    291.1019     35.3181      0.0000      0.3174     17.7610     23.9419     20.6332     20.2388
  7393.0000    290.6189     43.5167      0.0000      0.3062     18.6049     25.1296     21.6574     21.2629
  7393.5000    290.3738     49.1919      0.0000      0.2986     19.1550     26.0272     22.3464     21.9851
  7394.0000    290.6579     54.4872      0.0000      0.2972     19.0978     26.4491     22.4987     22.1272
  7394.5000    290.8883     49.1810      0.0000      0.2921     19.3677     27.2389     22.9464     22.6215
  7395.0000    290.9514     38.9810      0.0000      0.2842     20.3243     28.3698     23.9359     23.4236
  7395.5000    290.8622     30.1996      0.0000      0.2759     21.6082     29.2135     25.0494     24.3027
  7396.0000    290.6579     24.1782      0.0000      0.2672     22.8001     29.9824     26.1950     25.2528
  7396.5000    290.3138     23.5570      0.0000      0.2586     23.7334     30.8797     27.2212     26.2266
  7397.0000    290.0603     26.1826      0.0000      0.2577     23.3567     31.2087     27.1301     26.3243
  7397.5000    295.4100     32.6289      0.0000      0.2808     20.8548     28.4030     24.4662     23.7818
  7398.0000    305.6072     39.1776      0.0000      0.3085     18.2910     25.1596     21.5297     21.0528
  7398.5000    320.2460     40.5562      0.0000      0.3529     15.1987     20.5599     17.6798     17.3086
  7399.0000    331.9827     38.8191      0.0000      0.4077     11.7589     16.2271     13.8536     13.5940
  7399.5000    335.1106     36.7839      0.0000      0.4805      7.9629     12.5989     10.1335      9.8645
  7400.0000    336.5927     37.5283      0.0000      0.5375      5.7673     10.7777      8.0156      7.6743
  7400.5000    335.6360     43.4954      0.0000      0.4808      6.8918     13.5392      9.8975      9.8497
  7401.0000    328.7173     49.5832      0.0000      0.4062      9.5005     17.9342     13.2722     13.6857
  7401.5000    312.6128     49.1696      0.0000      0.3197     15.2803     25.0848     19.6915     20.0346
  7402.0000    298.2665     51.7101      0.0000      0.2842     19.8568     28.4326     23.8665     23.4295
  7402.5000    291.0433     63.9137      0.0000      0.2555     23.5788     31.3048     27.3287     26.5847
  7403.0000    290.7257     78.3754      0.0000      0.2439     25.0659     32.1274     28.5810     27.9759
  7403.5000    290.4751     87.6444      0.0000      0.2404     25.3976     32.3664     28.8187     28.4198
  7404.0000    290.4100     84.5664      0.0000      0.2405     25.3920     32.3669     28.7491     28.3991
  7404.5000    290.4331     77.4817      0.0000      0.2412     25.2032     32.7319     28.6908     28.3133
  7405.0000    290.6515     76.0873      0.0000      0.2455     24.7164     32.4746     28.2945     27.7805
  7405.5000    290.7299     76.4697      0.0000      0.2465     24.5897     32.3011     28.2237     27.6562
  7406.0000    290.7268     75.9130      0.0000      0.2466     24.5263     32.1455     28.1534     27.6503
  7406.5000    290.6830     72.8214      0.0000      0.2483     24.1663     32.0169     27.8230     27.4372
  7407.0000    290.8002     68.3236      0.0000      0.2560     23.6105     31.3108     27.1333     26.5226
  7407.5000    290.8014     64.3506      0.0000      0.2616     23.2821     30.7005     26.6910     25.8744
  7408.0000    290.7772     61.0823      0.0000      0.2624     23.4463     30.3325     26.6270     25.7945
  7408.5000    290.7617     68.2097      0.0000      0.2615     23.3858     30.1799     26.5159     25.8951
  7409.0000    290.8549     86.6575      0.0000      0.2634     22.9481     29.6533     26.0457     25.6701
  7409.5000    291.3305    100.6156      0.0000      0.2750     21.7874     28.1484     24.7796     24.3915
  7410.0000    291.9012    106.2241      0.0000      0.2893     20.3473     26.5717     23.3231     22.9086
  7410.5000    291.9441    107.8125      0.0000      0.2938     19.9038     26.1469     22.8695     22.4617
  7411.0000    291.5026    105.0978      0.0000      0.2864     20.6555     26.7752     23.4985     23.1987
  7411.5000    291.3773    106.7355      0.0000      0.2850     20.7189     26.7183     23.4858     23.3467
  7412.0000    291.3885    116.8513      0.0000      0.2861     20.3185     26.7064     23.3068     23.2283
  7412.5000    291.3010    128.1845      0.0000      0.2845     20.2235     27.0684     23.4707     23.3999
  7413.0000    291.2213    130.1401      0.0000      0.2813     20.2494     27.3406     23.6222     23.7255
  7413.5000    291.3806    122.9875      0.0000      0.2832     20.0392     26.8500     23.3248     23.5331
  7414.0000    291.4261    114.6668      0.0000      0.2849     19.5639     26.4132     22.9218     23.3555
  7414.5000    291.3032    107.8065      0.0000      0.2827     19.7015     26.7792     23.2525     23.5805
  7415.0000    291.1396    101.5344      0.0000      0.2783     20.6043     27.6787     24.1242     24.0452
  7415.5000    291.0534     89.9350      0.0000      0.2793     20.7448     28.3190     24.3126     23.9357
  7416.0000    290.8996     71.9127      0.0000      0.2871     19.4315     28.6391     23.6721     23.1306
  7416.5000    290.8833     54.1081      0.0000      0.3008     17.3895     28.4566     22.3666     21.7750
  7417.0000    291.0568     44.0386      0.0000      0.3174     15.3820     27.4723     20.7852     20.2359
  7417.5000    291.6624     42.8844      0.0000      0.3337     13.6050     25.9883     19.1439     18.8388
  7418.0000    292.4179     47.2171      0.0000      0.3494     12.1736     24.2321     17.6338     17.5750
  7418.5000    292.4389     44.6350      0.0000      0.3476     11.8914     24.0197     17.4338     17.7170
  7419.0000    291.8104     33.6837      0.0000      0.3326     13.2767     25.0160     18.6187     18.9276
  7419.5000    291.1126     25.5215      0.0000      0.3204     14.3337     26.0870     19.7002     19.9695
  7420.0000    291.0526     23.9587      0.0000      0.3246     14.5756     25.5335     19.5812     19.6054
  7420.5000    291.5340     25.1596      0.0000      0.3404     14.0342     24.0137     18.5374     18.2853
  7421.0000    292.3671     23.8444      0.0000      0.3578     13.2076     22.5686     17.3457     16.9415
  7421.5000    293.1223     22.0238      0.0000      0.3656     13.1385     21.7159     16.8155     16.3673
  7422.0000    293.6125     21.2544      0.0000      0.3667     13.7865     20.8573     16.7430     16.2904
  7422.5000    293.2378     22.5919      0.0000      0.3576     14.7628     20.9859     17.3986     16.9563
  7423.0000    292.5765     25.3835      0.0000      0.3519     14.8665     21.9104     17.8689     17.3855
  7423.5000    291.9193     29.2620      0.0000      0.3447     14.6419     23.3854     18.4023     17.9479
  7424.0000    291.9972     36.9501      0.0000      0.3473     13.9650     23.6098     18.1659     17.7377
  7424.5000    292.1466     43.3236      0.0000      0.3487     14.0399     23.0533     18.1003     17.6342
