~Version Information
VERS.                      2.0: CWLS Log ASCII Standard - VERSION 2.0
WRAP.                       NO: One line per depth step
~Well Information Block
STRT.FT                 0.0000: START DEPTH
STOP.FT             10100.0000: STOP DEPTH
STEP.FT                 0.5000: STEP
NULL.                -999.2500: NULL VALUE
COMP.          Marathon Oil Company: COMPANY
WELL.          Packineau USA 21-3H: WELL
FLD.               Reunion Bay: FIELD
LOC.           LOT 3--405' FNL & 2237' FWL----: LOCATION
CNTY.                Mountrail: COUNTY
DATE.          Wed Feb 11 13-14-57 2015: LOG DATE
UWI.              33-061-03367: UNIQUE WELL ID
STAT.                       ND: STATE
~Curve Information Block
DEPT.FT            0 000 00 00: Depth
TT3FT.USEC                   0: 3FT Travel Time
GK1.GAPI                     0: Gamma Ray
CCL.                         0: Casing Collar Locator
BONDIX.                      0: Bond Index
AMPMIN.                      0: Minimum Sector Amplitude
AMPMAX.                      0: Maximum Sector Amplitude
AMPAVG.                      0: Average Sector Amplitude
AMP3FT.MV                    0: AMP3FT Amplitude
~Parameter Information Block
~A  Depth      TT3FT        GK1         CCL        BONDIX      AMPMIN      AMPMAX      AMPAVG      AMP3FT   
# ...
 10050.0000    330.1198     16.8010      0.0000      0.5400      7.2882      7.9763      7.6326      7.5884
 10050.5000    329.4802     14.0802      0.0000      0.5449      7.1752      7.6170      7.4236      7.4286
 10051.0000    329.6386     13.4856      0.0000      0.5370      7.4916      7.7978      7.6568      7.6920
 10051.5000    331.1595     14.6924      0.0000      0.5193      8.0256      8.8629      8.3161      8.3136
 10052.0000    330.4810     14.2238      0.0000      0.5074      7.7757     10.2751      8.8174      8.7635
 10052.5000    326.8595     11.8354      0.0000      0.4877      8.0753     11.9565      9.6960      9.5567
 10053.0000    321.8370     10.4735      0.0000      0.4698      8.8500     12.8391     10.5195     10.3411
 10053.5000    320.0779     11.2229      0.0000      0.4581      9.5525     12.9468     11.0514     10.8857
 10054.0000    314.8869     12.7071      0.0000      0.4416     10.4432     13.3981     11.8271     11.7115
 10054.5000    310.0887     13.7530      0.0000      0.4333     11.0734     13.7776     12.3219     12.1436
 10055.0000    309.8420     12.5610      0.0000      0.4351     10.8381     13.5459     12.2478     12.0519
 10055.5000    318.4901     10.7235      0.0000      0.4507      9.9740     12.6584     11.4161     11.2468
 10056.0000    324.3619     10.7079      0.0000      0.4604      9.7248     11.9522     10.9461     10.7762
 10056.5000    325.7350     13.1181      0.0000      0.4643      9.8800     11.4346     10.8213     10.5927
 10057.0000    325.7314     16.9710      0.0000      0.4608     10.4977     11.4854     11.0334     10.7614
 10057.5000    324.4955     16.2642      0.0000      0.4520     10.9189     11.8671     11.4418     11.1846
 10058.0000    322.2415     13.0943      0.0000      0.4397     11.8081     12.2287     12.0604     11.8092
 10058.5000    318.6269     12.7031      0.0000      0.4305     11.9403     13.6320     12.6252     12.2946
 10059.0000    314.3277     12.7755      0.0000      0.4227     11.6264     15.3762     13.1220     12.7238
 10059.5000    303.8711     12.0245      0.0000      0.4125     11.6638     16.7943     13.7233     13.3098
 10060.0000    296.2010     11.8215      0.0000      0.4056     11.8568     17.3000     14.1324     13.7212
 10060.5000    296.0988     12.4012      0.0000      0.4084     11.8971     16.5939     13.9246     13.5525
 10061.0000    306.7339     11.0893      0.0000      0.4368     10.8724     14.3530     12.3339     11.9601
 10061.5000    317.2030      8.3328      0.0000      0.4753      9.3886     12.2108     10.4717     10.0954
 10062.0000    323.7541      8.6893      0.0000      0.5132      7.6954     10.6162      8.8474      8.5415
 10062.5000    325.3244     12.3214      0.0000      0.5326      6.8532      9.6348      8.0359      7.8400
 10063.0000    324.3818     14.2562      0.0000      0.5365      6.9744      9.0185      7.8692      7.7068
 10063.5000    323.9537     13.7497      0.0000      0.5297      7.5046      8.9856      8.1163      7.9436
 10064.0000    323.6041     12.6574      0.0000      0.5189      7.8794      9.6259      8.5196      8.3284
 10064.5000    323.7355     12.5547      0.0000      0.5206      7.5280      9.8742      8.4377      8.2662
 10065.0000    324.0842     13.8007      0.0000      0.5254      7.1795      9.9669      8.2738      8.0945
 10065.5000    324.4105     14.0288      0.0000      0.5380      6.7091      9.5900      7.8427      7.6565
 10066.0000    324.7188     14.4743      0.0000      0.5466      6.3717      9.3925      7.6068      7.3723
 10066.5000    324.7988     18.1724      0.0000      0.5563      6.0534      9.1053      7.2931      7.0645
 10067.0000    324.3373     22.1579      0.0000      0.5694      5.5523      8.7463      6.8594      6.6679
 10067.5000    323.6692     20.6552      0.0000      0.5893      4.9648      8.1509      6.2467      6.1085
 10068.0000    323.2234     16.7679      0.0000      0.6155      4.3455      7.3221      5.5265      5.4425
 10068.5000    322.8881     16.7742      0.0000      0.6319      3.9970      6.3229      4.9508      5.0637
 10069.0000    322.0472     20.8485      0.0000      0.6309      3.9630      5.6976      4.7634      5.0844
 10069.5000    321.4283     23.0157      0.0000      0.6220      4.1690      5.5852      4.8968      5.2886
 10070.0000    321.4893     20.5236      0.0000      0.6331      4.1690      5.3565      4.8037      5.0370
 10070.5000    321.3173     19.3802      0.0000      0.6081      4.5538      5.7783      5.1367      5.6231
 10071.0000    320.5995     22.2008      0.0000      0.5685      4.8115      7.0068      5.6842      6.6945
 10071.5000    320.2834     26.7689      0.0000      0.5501      5.0814      7.9112      6.1467      7.2599
 10072.0000    321.2151     27.4598      0.0000      0.5800      5.1208      6.8179      5.8328      6.3630
 10072.5000    322.7894     23.4031      0.0000      0.6138      4.9446      6.1703      5.4395      5.4840
 10073.0000    324.5455     21.3899      0.0000      0.6207      4.7265      6.1015      5.2632      5.3182
 10073.5000    326.1172     22.0433      0.0000      0.6355      4.3235      5.7754      4.9144      4.9837
 10074.0000    327.4085     25.4543      0.0000      0.6476      4.1418      5.4463      4.7283      4.7233
 10074.5000    328.4128     29.0668      0.0000      0.6495      4.2478      5.3535      4.8014      4.6848
 10075.0000    329.5499     26.2999      0.0000      0.6337      4.5386      5.5480      5.0926      5.0222
 10075.5000    330.1603     21.6171      0.0000      0.6015      5.3324      6.2421      5.8577      5.7888
 10076.0000    330.3562     20.9425      0.0000      0.5655      6.3230      7.2653      6.8748      6.7833
 10076.5000    328.5937     21.0013      0.0000      0.5201      7.8317      8.9377      8.4823      8.2840
 10077.0000    320.8566     21.4130      0.0000      0.4709      9.7949     11.1368     10.6613     10.2908
 10077.5000    306.8795     20.1569      0.0000      0.4229     11.9853     14.0012     13.2180     12.7149
 10078.0000    295.8874     19.5254      0.0000      0.3868     13.8787     16.4188     15.4229     14.9052
 10078.5000    290.6069     21.4935      0.0000      0.3615     15.3299     17.9941     16.9852     16.6663
 10079.0000    290.1664     23.1503      0.0000      0.3450     16.4417     19.2387     17.9706     17.9183
 10079.5000    290.0113     23.6647      0.0000      0.3342     17.1779     20.1632     18.6440     18.7944
 10080.0000    290.0473     24.3136      0.0000      0.3246     18.4564     21.1265     19.6731     19.6084
 10080.5000    289.9339     24.8107      0.0000      0.3098     20.0651     22.6374     21.2896     20.9255
 10081.0000    289.8745     24.3281      0.0000      0.2943     21.3678     24.2082     22.8102     22.4114
 10081.5000    289.7797     25.9308      0.0000      0.2801     22.1524     25.8776     24.0287     23.8587
 10082.0000    289.8502     29.7315      0.0000      0.2766     22.0918     26.7871     24.3499     24.2198
 10082.5000    289.7859     32.1329      0.0000      0.2759     21.9371     27.3436     24.4722     24.2997
 10083.0000    289.6254     29.2537      0.0000      0.2772     21.8161     27.2778     24.4025     24.1606
 10083.5000    289.4630     24.4848      0.0000      0.2779     21.7374     26.9846     24.3120     24.0896
 10084.0000    289.4418     24.1530      0.0000      0.2798     21.3556     26.9218     24.1180     23.8883
 10084.5000    289.6076     28.8119      0.0000      0.2848     20.6407     26.7153     23.5964     23.3615
 10085.0000    289.7361     32.4720      0.0000      0.2856     20.6195     26.8260     23.5875     23.2875
 10085.5000    289.7572     31.6428      0.0000      0.2830     20.9497     27.1402     23.8935     23.5479
 10086.0000    289.4121     29.4729      0.0000      0.2726     21.8979     28.4087     25.0442     24.6549
 10086.5000    289.0699     29.2966      0.0000      0.2660     22.5402     29.2853     25.8153     25.3801
 10087.0000    288.8944     29.2113      0.0000      0.2666     22.6523     29.0789     25.7471     25.3209
