~Version Information
VERS.                      2.0: CWLS Log ASCII Standard - VERSION 2.0
WRAP.                       NO: One line per depth step
~Well Information Block
STRT.FT                 0.0000: START DEPTH
STOP.FT             10100.0000: STOP DEPTH
STEP.FT                 0.5000: STEP
NULL.                -999.2500: NULL VALUE
COMP.          Marathon Oil Company: COMPANY
WELL.          Packineau USA 21-3H: WELL
FLD.               Reunion Bay: FIELD
LOC.           LOT 3--405' FNL & 2237' FWL----: LOCATION
CNTY.                Mountrail: COUNTY
DATE.          Wed Feb 11 13-14-57 2015: LOG DATE
UWI.              33-061-03367: UNIQUE WELL ID
STAT.                       ND: STATE
~Curve Information Block
DEPT.FT            0 000 00 00: Depth
TT3FT.USEC                   0: 3FT Travel Time
GK1.GAPI                     0: Gamma Ray
CCL.                         0: Casing Collar Locator
BONDIX.                      0: Bond Index
AMPMIN.                      0: Minimum Sector Amplitude
AMPMAX.                      0: Maximum Sector Amplitude
AMPAVG.                      0: Average Sector Amplitude
AMP3FT.MV                    0: AMP3FT Amplitude
~Parameter Information Block
~A  Depth      TT3FT        GK1         CCL        BONDIX      AMPMIN      AMPMAX      AMPAVG      AMP3FT   
# ...
  6037.5000    291.6961     61.6170      0.0000      0.3287     17.2506     22.1827     19.5505     19.2591
  6038.0000    294.1241     55.5414      0.0000      0.3505     15.4511     20.1781     17.7815     17.4891
  6038.5000    303.9688     49.1885      0.0000      0.3948     12.7729     16.5841     14.6088     14.3902
  6039.0000    320.5033     45.3515      0.0000      0.4561      9.8797     12.5872     11.1596     10.9863
  6039.5000    333.6155     47.2826      0.0000      0.5197      7.4773      9.4942      8.4177      8.3017
  6040.0000    340.0956     50.6241      0.0000      0.5841      5.6111      7.0828      6.2906      6.2506
  6040.5000    341.3574     51.1373      0.0000      0.6337      4.3720      5.6377      4.9507      5.0222
  6041.0000    342.1798     49.5582      0.0000      0.6443      3.9933      5.3475      4.6052      4.7943
  6041.5000    342.8037     47.6262      0.0000      0.6315      4.4356      5.5540      4.9166      5.0725
  6042.0000    342.5909     47.3024      0.0000      0.6236      5.0234      5.7783      5.2756      5.2501
  6042.5000    341.4509     51.3932      0.0000      0.6105      5.4412      6.2092      5.7158      5.5639
  6043.0000    339.2203     57.0350      0.0000      0.5641      6.6079      7.6363      7.0153      6.8248
  6043.5000    336.8070     56.6915      0.0000      0.5095      8.2692      9.7605      8.8538      8.6806
  6044.0000    334.9520     52.4196      0.0000      0.4691      9.6131     11.7710     10.5157     10.3707
  6044.5000    334.2957     50.7759      0.0000      0.4534      9.9130     12.7972     11.2658     11.1166
  6045.0000    334.7815     49.5207      0.0000      0.4454     10.2493     13.2161     11.6791     11.5132
  6045.5000    335.8104     48.9591      0.0000      0.4404     10.6220     13.3717     11.9681     11.7707
  6046.0000    334.7769     47.6586      0.0000      0.4340     11.0643     13.6820     12.3248     12.1081
  6046.5000    326.7064     44.1254      0.0000      0.4287     11.2400     14.1884     12.6321     12.3923
  6047.0000    311.3867     43.4812      0.0000      0.4078     12.0549     15.8549     13.8639     13.5880
  6047.5000    298.5536     48.9634      0.0000      0.3693     13.8121     18.9012     16.4067     16.1009
  6048.0000    291.7228     54.4387      0.0000      0.3154     17.0597     24.1030     20.7636     20.4223
  6048.5000    290.4636     53.6646      0.0000      0.2709     20.7255     28.9775     25.1209     24.8355
  6049.0000    290.0851     48.1573      0.0000      0.2440     23.6369     32.1432     28.1344     27.9700
  6049.5000    290.1242     41.0954      0.0000      0.2303     25.4849     33.7449     29.7742     29.7133
  6050.0000    290.1579     34.3789      0.0000      0.2229     26.2999     34.6891     30.7365     30.6871
  6050.5000    290.2409     31.7498      0.0000      0.2278     25.4698     34.1938     30.2464     30.0418
  6051.0000    290.5089     34.3677      0.0000      0.2472     23.0916     31.9028     27.9282     27.5763
  6051.5000    293.1349     38.9524      0.0000      0.2881     19.1774     27.1412     23.3568     23.0270
  6052.0000    302.8578     41.2762      0.0000      0.3518     14.6664     20.6795     17.6227     17.3944
  6052.5000    318.9511     40.8208      0.0000      0.4236     11.0522     14.8811     12.8177     12.6734
  6053.0000    331.3924     39.2009      0.0000      0.4859      8.8557     10.9681      9.7710      9.6337
  6053.5000    337.3990     37.6629      0.0000      0.5340      7.3293      8.5757      7.8609      7.7926
  6054.0000    338.7432     41.2078      0.0000      0.5732      6.2147      7.1875      6.6075      6.5584
  6054.5000    339.2446     52.6112      0.0000      0.5985      5.7165      6.4844      6.0105      5.8658
  6055.0000    338.6081     61.7032      0.0000      0.5865      6.0746      6.8943      6.3957      6.1825
  6055.5000    337.1879     62.0559      0.0000      0.5424      7.2137      8.4979      7.7564      7.5115
  6056.0000    333.2403     56.0986      0.0000      0.4645      9.8555     12.0014     10.7920     10.5838
  6056.5000    326.2043     48.5924      0.0000      0.4152     12.0428     14.8706     13.3247     13.1529
  6057.0000    317.8109     44.7883      0.0000      0.3937     13.1335     16.4277     14.6713     14.4612
  6057.5000    307.3257     41.7369      0.0000      0.3900     13.1183     16.9461     14.9410     14.6980
  6058.0000    302.3195     39.3878     -8.1934      0.3921     12.6790     17.0128     14.7980     14.5618
  6058.5000    303.6007     45.3421      0.0000      0.3734     13.6909     18.4696     16.0568     15.8168
  6059.0000    306.0644     53.7661      0.0000      0.3456     16.0539     20.6563     18.2164     17.8709
  6059.5000    303.7991     55.7919      0.0000      0.3096     19.7227     23.9002     21.4881     20.9462
  6060.0000    297.3072     55.5839      0.0000      0.3019     20.3310     24.0566     22.0869     21.6655
  6060.5000    291.7787     59.7844      0.0000      0.3029     19.7890     23.7931     21.8966     21.5767
  6061.0000    291.3989     60.4210      0.0000      0.3105     18.9683     23.1588     21.2589     20.8604
  6061.5000    291.5732     54.5414      0.0000      0.3113     19.2501     23.4252     21.3536     20.7894
  6062.0000    291.5639     50.8834      0.0000      0.3006     20.1014     24.6127     22.2844     21.7987
  6062.5000    291.5024     51.5325      0.0000      0.2915     20.3619     25.8234     23.0500     22.6837
  6063.0000    291.6530     49.6700      0.0000      0.2936     20.0378     25.4758     22.6951     22.4765
  6063.5000    294.1857     45.5272      0.0000      0.3139     18.6321     22.9068     20.7371     20.5555
  6064.0000    304.5858     46.8081      0.0000      0.3588     15.6328     18.4204     17.0170     16.8616
  6064.5000    322.0999     52.2837      0.0000      0.4273     11.7013     13.6738     12.6090     12.4692
  6065.0000    355.3592     55.0744      0.0000      0.5126      7.9860      9.6498      8.7178      8.5622
  6065.5000    383.0470     55.2587      0.0000      0.5917      5.6493      6.9063      6.1884      6.0434
  6066.0000    387.5544     57.8250      0.0000      0.6197      5.0848      6.0626      5.4645      5.3419
  6066.5000    365.2550     60.2809      0.0000      0.6081      5.3824      6.3977      5.7779      5.6231
  6067.0000    342.4131     58.7563      0.0000      0.5894      5.7136      6.9272      6.2668      6.1055
  6067.5000    338.8628     55.3610      0.0000      0.5747      6.0333      7.1507      6.6305      6.5140
  6068.0000    337.8607     54.4356      0.0000      0.5744      5.9777      7.4210      6.6080      6.5229
  6068.5000    337.7394     54.7521      0.0000      0.5841      5.6081      7.3673      6.3240      6.2506
  6069.0000    338.2387     56.3010      0.0000      0.6055      4.9688      6.6837      5.7279      5.6882
  6069.5000    339.3872     56.3577      0.0000      0.6240      4.6416      5.9379      5.2655      5.2413
  6070.0000    340.0989     53.6939      0.0000      0.6284      4.7325      5.6041      5.1534      5.1406
  6070.5000    339.7354     51.1139      0.0000      0.6216      5.0773      5.7335      5.3943      5.2975
  6071.0000    338.6004     52.2065      0.0000      0.5948      5.8856      6.6430      6.1892      5.9605
  6071.5000    337.2060     55.1351      0.0000      0.5465      7.2639      8.1479      7.6135      7.3753
  6072.0000    336.2668     53.4742      0.0000      0.5034      8.5214      9.8293      9.1461      8.9174
  6072.5000    335.6364     45.9038      0.0000      0.4707      9.3762     11.3736     10.3941     10.2996
  6073.0000    335.4692     42.1376      0.0000      0.4561      9.4950     12.2512     10.9264     10.9834
  6073.5000    335.7841     44.6300      0.0000      0.4450      9.8343     12.7407     11.4174     11.5339
  6074.0000    336.1186     48.3044      0.0000      0.4396     10.7068     12.9289     11.8654     11.8121
  6074.5000    336.3038     53.7492      0.0000      0.4416     10.9310     12.8392     11.9993     11.7115
