~Version Information
VERS.                      2.0: CWLS Log ASCII Standard - VERSION 2.0
WRAP.                       NO: One line per depth step
~Well Information Block
STRT.FT                 0.0000: START DEPTH
STOP.FT             10100.0000: STOP DEPTH
STEP.FT                 0.5000: STEP
NULL.                -999.2500: NULL VALUE
COMP.          Marathon Oil Company: COMPANY
WELL.          Packineau USA 21-3H: WELL
FLD.               Reunion Bay: FIELD
LOC.           LOT 3--405' FNL & 2237' FWL----: LOCATION
CNTY.                Mountrail: COUNTY
DATE.          Wed Feb 11 13-14-57 2015: LOG DATE
UWI.              33-061-03367: UNIQUE WELL ID
STAT.                       ND: STATE
~Curve Information Block
DEPT.FT            0 000 00 00: Depth
TT3FT.USEC                   0: 3FT Travel Time
GK1.GAPI                     0: Gamma Ray
CCL.                         0: Casing Collar Locator
BONDIX.                      0: Bond Index
AMPMIN.                      0: Minimum Sector Amplitude
AMPMAX.                      0: Maximum Sector Amplitude
AMPAVG.                      0: Average Sector Amplitude
AMP3FT.MV                    0: AMP3FT Amplitude
~Parameter Information Block
~A  Depth      TT3FT        GK1         CCL        BONDIX      AMPMIN      AMPMAX      AMPAVG      AMP3FT   
# ...
   675.0000    288.2507     21.8096      0.0000      0.0799     49.3879     65.6848     57.3450     57.6336
   675.5000    288.2837     26.7164      0.0000      0.0816     48.8060     65.3434     56.9617     57.2014
   676.0000    288.3145     30.7617      0.0000      0.0822     48.9466     64.6016     56.7322     57.0505
   676.5000    288.2960     31.0240      0.0000      0.0830     49.0319     64.0150     56.5369     56.8492
   677.0000    288.2787     28.9761      0.0000      0.0834     48.9274     63.8660     56.3729     56.7397
   677.5000    288.2613     26.5893      0.0000      0.0836     48.6619     64.2416     56.3078     56.6894
   678.0000    288.1745     27.7327      0.0000      0.0828     48.4462     64.8747     56.4795     56.8936
   678.5000    288.1022     34.7365      0.0000      0.0827     48.4406     65.1540     56.5552     56.9321
   679.0000    288.1289     40.5220      0.0000      0.0841     48.1173     64.7381     56.2053     56.5651
   679.5000    288.1782     39.8343      0.0000      0.0853     48.0864     64.2602     55.9951     56.2809
   680.0000    288.1765     39.2285      0.0000      0.0851     48.2719     64.2974     56.0850     56.3165
   680.5000    288.1626     40.9395      0.0000      0.0846     48.3562     64.5861     56.1827     56.4496
   681.0000    288.1862     41.9362      0.0000      0.0848     48.2691     64.4123     56.0088     56.3964
   681.5000    288.2542     38.6173      0.0000      0.0861     48.2466     63.6332     55.6459     56.0797
   682.0000    288.2786     33.9736      0.0000      0.0864     48.4097     63.2701     55.5890     56.0116
   682.5000    288.2703     34.4043      0.0000      0.0865     48.3169     63.1770     55.5703     55.9849
   683.0000    288.2418     36.0036      0.0000      0.0856     48.3141     63.4222     55.7427     56.1921
   683.5000    288.1960     35.0126      0.0000      0.0843     48.3450     63.9808     56.0062     56.5177
   684.0000    288.1660     32.1190      0.0000      0.0838     48.5418     64.1453     56.1888     56.6450
   684.5000    288.2017     30.7413      0.0000      0.0846     48.3900     63.9001     56.0202     56.4615
   685.0000    288.2587     34.3153      0.0000      0.0862     48.0273     63.4501     55.6394     56.0619
   685.5000    288.2233     40.4018      0.0000      0.0867     48.0779     63.4098     55.5433     55.9198
   686.0000    288.1210     44.5939      0.0000      0.0859     48.3422     63.9467     55.8298     56.1300
   686.5000    288.0797     44.5389      0.0000      0.0844     48.6205     64.4930     56.2508     56.5059
   687.0000    288.0562     40.2178      0.0000      0.0825     49.1659     64.7102     56.7274     56.9824
   687.5000    288.1238     38.0443      0.0000      0.0824     49.5791     64.3316     56.7962     56.9972
   688.0000    288.1645     37.1510      0.0000      0.0833     49.4526     63.8970     56.5273     56.7752
   688.5000    288.1050     30.4915      0.0000      0.0835     49.2052     64.0740     56.4021     56.7338
   689.0000    288.0482     25.7877      0.0000      0.0832     49.2305     64.7878     56.5907     56.7959
   689.5000    288.0261     26.6238      0.0000      0.0827     49.4048     65.3310     56.9053     56.9321
   690.0000    288.1056     26.2897      0.0000      0.0831     49.3992     64.8375     56.8096     56.8196
   690.5000    288.1651     24.1993      0.0000      0.0831     49.3542     64.0740     56.5851     56.8196
   691.0000    288.1778     25.0856      0.0000      0.0825     49.5425     63.7388     56.5538     56.9735
   691.5000    288.2058     25.5029      0.0000      0.0828     49.4301     63.8350     56.4402     56.8877
   692.0000    288.1917     24.6075      0.0000      0.0820     49.4863     64.4433     56.6455     57.0919
   692.5000    288.1466     23.0529      0.0000      0.0808     49.7337     64.9368     56.9692     57.4027
   693.0000    288.1411     22.2153      0.0000      0.0807     49.8180     64.8933     57.0575     57.4264
   693.5000    288.1719     23.6284      0.0000      0.0823     49.5313     64.4930     56.8779     57.0298
   694.0000    288.1415     24.6052      0.0000      0.0832     49.3795     64.4309     56.8995     56.8107
   694.5000    288.1487     22.8517      0.0000      0.0838     49.2136     64.4278     56.7869     56.6450
   695.0000    288.1479     22.3404      0.0000      0.0829     49.1855     64.7288     56.7983     56.8640
   695.5000    288.1479     25.1146      0.0000      0.0815     49.3261     65.1509     56.9234     57.2310
   696.0000    288.1151     28.3092      0.0000      0.0799     49.7899     65.5172     57.3230     57.6336
   696.5000    288.0929     30.0322      0.0000      0.0795     50.0373     65.4334     57.4755     57.7224
   697.0000    288.0901     29.3797      0.0000      0.0796     50.0486     65.4365     57.4801     57.7076
   697.5000    288.0951     31.7368      0.0000      0.0792     50.1104     65.7872     57.6126     57.8141
   698.0000    288.1200     36.5035      0.0000      0.0792     50.1919     65.6010     57.5890     57.7993
   698.5000    288.1663     39.5556      0.0000      0.0797     50.2819     65.1013     57.4485     57.6839
   699.0000    288.1856     41.1166      0.0000      0.0797     50.4140     64.9306     57.4111     57.6809
   699.5000    288.1754     40.4572      0.0000      0.0795     50.5827     64.6792     57.3537     57.7342
   700.0000    288.1480     35.4743      0.0000      0.0784     51.4148     64.1360     57.5828     58.0213
   700.5000    288.1285     26.6008      0.0000      0.0769     53.1015     63.0094     57.9601     58.3883
   701.0000    288.1623     20.4996      0.0000      0.0768     54.7750     61.3288     58.0565     58.4239
   701.5000    288.2318     19.2962      0.0000      0.0784     55.1563     60.3408     57.7596     58.0124
   702.0000    288.2613     20.6815      0.0000      0.0795     54.7693     60.2881     57.5516     57.7431
   702.5000    288.2786     24.1691      0.0000      0.0806     53.3432     61.0106     57.2446     57.4501
   703.0000    288.2987     25.0017      0.0000      0.0814     51.8224     62.1093     56.9608     57.2606
   703.5000    288.2853     24.6153      0.0000      0.0812     50.8891     63.0466     56.8361     57.3110
   704.0000    288.2419     27.0268      0.0000      0.0804     50.4787     63.7450     56.9335     57.4945
   704.5000    288.1864     26.5378      0.0000      0.0796     50.4927     64.1981     57.1683     57.7017
   705.0000    288.1582     26.9246      0.0000      0.0798     50.4590     64.3223     57.2250     57.6543
   705.5000    288.1682     32.8917      0.0000      0.0801     50.2566     64.8778     57.3086     57.5773
   706.0000    288.2068     36.3061      0.0000      0.0803     49.9333     65.4334     57.3316     57.5211
   706.5000    288.2211     31.4208      0.0000      0.0806     49.7449     65.7624     57.2895     57.4560
   707.0000    288.2133     24.6857      0.0000      0.0807     49.7478     65.8462     57.2745     57.4382
   707.5000    288.2158     23.4168      0.0000      0.0801     49.8096     66.1100     57.3928     57.5685
   708.0000    288.2503     25.5417      0.0000      0.0801     49.5144     66.5228     57.5166     57.5714
   708.5000    288.2685     25.5494      0.0000      0.0801     49.1883     66.9573     57.6746     57.5685
   709.0000    288.4105     22.9190      0.0000      0.0821     48.6345     66.9449     57.3431     57.0831
   709.5000    288.9425     21.6120      0.0000      0.0894     46.7820     65.2565     55.5031     55.2716
   710.0000    291.1844     22.6802      0.0000      0.1045     43.4648     61.1223     51.8572     51.7139
   710.5000    294.0249     23.8995      0.0000      0.1181     40.5834     57.4755     48.7940     48.7037
   711.0000    295.6816     24.5790      0.0000      0.1573     34.5141     48.0184     41.0743     40.9815
   711.5000    295.8436     23.7447      0.0000      0.1758     32.5295     43.6360     37.8273     37.7730
   712.0000    295.5421     27.1212      0.0000      0.1909     30.9918     40.2064     35.4384     35.3429
