~Version Information
VERS.                      2.0: CWLS Log ASCII Standard - VERSION 2.0
WRAP.                       NO: One line per depth step
~Well Information Block
STRT.FT                 0.0000: START DEPTH
STOP.FT             10100.0000: STOP DEPTH
STEP.FT                 0.5000: STEP
NULL.                -999.2500: NULL VALUE
COMP.          Marathon Oil Company: COMPANY
WELL.          Packineau USA 21-3H: WELL
FLD.               Reunion Bay: FIELD
LOC.           LOT 3--405' FNL & 2237' FWL----: LOCATION
CNTY.                Mountrail: COUNTY
DATE.          Wed Feb 11 13-14-57 2015: LOG DATE
UWI.              33-061-03367: UNIQUE WELL ID
STAT.                       ND: STATE
~Curve Information Block
DEPT.FT            0 000 00 00: Depth
TT3FT.USEC                   0: 3FT Travel Time
GK1.GAPI                     0: Gamma Ray
CCL.                         0: Casing Collar Locator
BONDIX.                      0: Bond Index
AMPMIN.                      0: Minimum Sector Amplitude
AMPMAX.                      0: Maximum Sector Amplitude
AMPAVG.                      0: Average Sector Amplitude
AMP3FT.MV                    0: AMP3FT Amplitude
~Parameter Information Block
~A  Depth      TT3FT        GK1         CCL        BONDIX      AMPMIN      AMPMAX      AMPAVG      AMP3FT   
# ...
  1350.0000    288.0696     30.6592      0.0000      0.0810     55.9049     58.0404     57.0731     57.3494
  1350.5000    288.1293     26.8480      0.0000      0.0822     55.4077     58.1343     56.8291     57.0594
  1351.0000    288.2812     23.9683      0.0000      0.0840     54.5659     58.0495     56.3252     56.5888
  1351.5000    288.3381     25.6819      0.0000      0.0843     54.1846     58.1737     56.2229     56.5266
  1352.0000    288.2851     28.0914      0.0000      0.0835     54.1987     58.1727     56.3258     56.7308
  1352.5000    288.1948     26.1478      0.0000      0.0830     54.5349     58.5413     56.5008     56.8551
  1353.0000    288.1248     23.4986      0.0000      0.0824     54.8612     58.7024     56.7823     56.9883
  1353.5000    288.0559     26.1521      0.0000      0.0807     55.2492     58.9718     57.2000     57.4382
  1354.0000    288.0206     25.8723      0.0000      0.0793     54.7516     59.6253     57.3229     57.7875
  1354.5000    288.0027     20.5342      0.0000      0.0794     53.4978     60.5047     57.1167     57.7520
  1355.0000    287.9337     21.1189      0.0000      0.0796     52.5870     61.5165     57.1204     57.7046
  1355.5000    287.9103     25.6197      0.0000      0.0804     52.2890     61.7958     57.0919     57.5063
  1356.0000    287.9253     27.2623      0.0000      0.0806     52.3312     61.8548     57.1697     57.4590
  1356.5000    287.9670     26.6430      0.0000      0.0804     52.1063     61.8765     57.0903     57.5033
  1357.0000    288.0082     25.3151      0.0000      0.0794     52.1176     62.0441     57.1339     57.7549
  1357.5000    288.0259     23.5683      0.0000      0.0777     52.8456     62.1062     57.4682     58.1900
  1358.0000    288.0648     24.0551      0.0000      0.0777     53.6271     61.4948     57.6568     58.1900
  1358.5000    288.0437     25.8277      0.0000      0.0774     53.9504     61.7686     57.9477     58.2640
  1359.0000    288.0003     26.0052      0.0000      0.0769     53.2814     62.4593     58.1209     58.3854
  1359.5000    287.9688     26.2927      0.0000      0.0763     52.7220     63.3229     58.2697     58.5393
  1360.0000    287.9523     25.5326      0.0000      0.0756     52.6967     63.9467     58.4353     58.7228
  1360.5000    287.9546     24.8223      0.0000      0.0749     53.0115     64.1515     58.6362     58.9270
  1361.0000    288.0000     26.1333      0.0000      0.0737     53.2729     64.2726     58.8209     59.2171
  1361.5000    288.0383     31.0175      0.0000      0.0724     53.5737     64.5985     59.0809     59.5575
  1362.0000    288.0262     34.5446      0.0000      0.0710     54.0994     64.9089     59.3664     59.9393
  1362.5000    288.0076     32.0669      0.0000      0.0703     54.6532     64.8685     59.5779     60.1258
  1363.0000    288.0568     28.4166      0.0000      0.0709     54.6110     64.5333     59.4832     59.9541
  1363.5000    288.1258     26.7742      0.0000      0.0716     54.3243     64.5220     59.3993     59.7647
  1364.0000    288.1208     23.7855      0.0000      0.0715     54.4171     64.8317     59.5231     59.8061
  1364.5000    288.0780     21.2773      0.0000      0.0703     54.5038     65.4512     59.8758     60.1199
  1365.0000    288.1021     22.0558      0.0000      0.0691     54.6789     65.9901     60.1787     60.4425
  1365.5000    288.1823     21.1025      0.0000      0.0689     54.6676     66.2255     60.2438     60.4869
  1366.0000    288.1960     19.0196      0.0000      0.0712     54.0716     65.8228     59.7307     59.8742
  1366.5000    288.3647     17.6728      0.0000      0.0805     51.7608     63.1190     57.4337     57.4767
  1367.0000    289.9413     18.0570      0.0000      0.0989     47.4811     58.0365     53.0220     53.0073
  1367.5000    292.7816     20.3313      0.0000      0.1183     43.5375     52.9849     48.7357     48.6652
  1368.0000    294.9911     22.4051      0.0000      0.1610     36.3763     43.9380     40.4492     40.3214
  1368.5000    295.5213     25.2233      0.0000      0.1798     34.1079     40.2925     37.1953     37.1100
  1369.0000    295.4304     29.6368      4.2517      0.1925     32.4283     37.9572     35.1303     35.0914
  1369.5000    295.7859     29.3615      0.0000      0.1742     35.2029     40.8779     38.0597     38.0305
  1370.0000    295.5768     25.2367      0.0000      0.1496     39.3071     45.1134     42.3911     42.3874
  1370.5000    293.1816     22.6144      0.0000      0.1209     44.9070     50.8770     48.0761     48.1088
  1371.0000    290.2600     22.1327      0.0000      0.0895     51.8088     58.4422     55.0817     55.2361
  1371.5000    288.4173     22.1691      0.0000      0.0770     53.8625     62.3199     58.0809     58.3765
  1372.0000    287.9321     24.0897      0.0000      0.0681     55.3089     65.0857     60.2071     60.6970
  1372.5000    287.9585     28.7958      0.0000      0.0673     55.5829     65.0857     60.4107     60.9131
  1373.0000    288.0002     33.3193      0.0000      0.0675     56.0660     64.6831     60.4521     60.8776
  1373.5000    288.0085     32.4020      0.0000      0.0674     56.5066     64.3981     60.4796     60.9042
  1374.0000    288.0051     27.1858      0.0000      0.0682     56.3428     64.0791     60.2036     60.6674
  1374.5000    287.9925     26.9690      0.0000      0.0691     56.0264     63.6362     59.8684     60.4306
  1375.0000    287.9532     30.4643      0.0000      0.0693     55.9134     63.5123     59.7940     60.3744
  1375.5000    287.9262     29.3398      0.0000      0.0686     56.1507     63.7415     59.9950     60.5786
  1376.0000    287.9206     27.6933      0.0000      0.0681     56.2213     64.1627     60.1952     60.7059
  1376.5000    287.9260     30.4170      0.0000      0.0679     56.1676     64.6552     60.3673     60.7592
  1377.0000    287.9008     29.9015      0.0000      0.0669     56.2213     65.2932     60.6872     61.0315
  1377.5000    287.8647     26.2221      0.0000      0.0663     56.2383     65.5596     60.8639     61.1795
  1378.0000    287.8369     22.2733      0.0000      0.0665     56.2326     65.5286     60.8978     61.1321
  1378.5000    287.8545     22.0468      0.0000      0.0681     55.9727     64.9184     60.5139     60.7000
  1379.0000    287.8882     26.8241      0.0000      0.0692     55.5725     64.7381     60.2529     60.4247
  1379.5000    287.9510     31.6821      0.0000      0.0701     54.7038     64.9833     59.9821     60.1613
  1380.0000    287.9385     32.7344      0.0000      0.0700     54.1894     65.5265     59.9950     60.1879
  1380.5000    287.8663     32.2245      0.0000      0.0692     54.2512     65.8400     60.1843     60.4218
  1381.0000    287.8456     31.5891      0.0000      0.0689     54.4592     65.5017     60.1293     60.4958
  1381.5000    287.8686     31.1634      0.0000      0.0692     54.3721     65.4272     59.9818     60.4129
  1382.0000    287.8897     31.9510      0.0000      0.0697     53.9589     65.7872     59.8623     60.2856
  1382.5000    287.8664     31.7704      0.0000      0.0703     53.5822     66.3614     59.8775     60.1317
  1383.0000    287.8669     31.3559      0.0000      0.0707     53.4613     66.3335     59.8217     60.0222
  1383.5000    287.8692     29.8125      0.0000      0.0706     53.8914     65.7344     59.7816     60.0311
  1384.0000    287.8403     25.2063      0.0000      0.0702     54.6982     65.0796     59.9033     60.1554
  1384.5000    287.8378     17.8610      0.0000      0.0703     54.9877     64.8933     59.9061     60.1258
  1385.0000    287.8677     11.7008      0.0000      0.0708     54.4564     65.2999     59.7617     59.9807
  1385.5000    287.9590      9.8917      0.0000      0.0719     53.5119     65.5482     59.4051     59.6877
  1386.0000    287.9848     10.4207      0.0000      0.0720     53.1858     65.7469     59.3735     59.6700
  1386.5000    287.9770     10.5317      0.0000      0.0713     53.3741     65.8244     59.5829     59.8476
  1387.0000    287.9132     11.1993      0.0000      0.0704     53.7059     65.9312     59.8850     60.1021
