~Version Information
VERS.                      2.0: CWLS Log ASCII Standard - VERSION 2.0
WRAP.                       NO: One line per depth step
~Well Information Block
STRT.FT                 0.0000: START DEPTH
STOP.FT             10100.0000: STOP DEPTH
STEP.FT                 0.5000: STEP
NULL.                -999.2500: NULL VALUE
COMP.          Marathon Oil Company: COMPANY
WELL.          Packineau USA 21-3H: WELL
FLD.               Reunion Bay: FIELD
LOC.           LOT 3--405' FNL & 2237' FWL----: LOCATION
CNTY.                Mountrail: COUNTY
DATE.          Wed Feb 11 13-14-57 2015: LOG DATE
UWI.              33-061-03367: UNIQUE WELL ID
STAT.                       ND: STATE
~Curve Information Block
DEPT.FT            0 000 00 00: Depth
TT3FT.USEC                   0: 3FT Travel Time
GK1.GAPI                     0: Gamma Ray
CCL.                         0: Casing Collar Locator
BONDIX.                      0: Bond Index
AMPMIN.                      0: Minimum Sector Amplitude
AMPMAX.                      0: Maximum Sector Amplitude
AMPAVG.                      0: Average Sector Amplitude
AMP3FT.MV                    0: AMP3FT Amplitude
~Parameter Information Block
~A  Depth      TT3FT        GK1         CCL        BONDIX      AMPMIN      AMPMAX      AMPAVG      AMP3FT   
     0.0000   1368.0000      5.3980     -6.7578      0.9180      1.3672      1.7246      1.5440      1.4349
     0.5000   1368.0000      7.4174      0.0000      0.9228      1.3842      1.7005      1.5616      1.4053
     1.0000   1368.0000     10.1851      0.0000      0.9093      1.4407      1.7664      1.6501      1.4911
     1.5000   1368.0000     14.6059      0.0000      0.8966      1.4661      1.9119      1.6806      1.5770
     2.0000   1368.0000     19.9581      0.0000      0.8907      1.4746      1.9646      1.6623      1.6184
     2.5000   1368.0000     23.4016      0.0000      0.8854      1.4322      1.8407      1.6016      1.6569
     3.0000   1368.0000     23.8389      0.0000      0.8810      1.3757      1.7244      1.5679      1.6894
     3.5000   1368.0000     24.1435      0.0000      0.8774      1.3757      1.8060      1.5888      1.7161
     4.0000   1368.0000     25.5084      0.0000      0.8814      1.3644      1.7842      1.5813      1.6865
     4.5000   1368.0000     26.0561      0.0000      0.8878      1.3870      1.8291      1.5880      1.6391
     5.0000   1368.0000     25.3875      0.0000      0.8916      1.3842      1.8650      1.5885      1.6125
     5.5000   1368.0000     24.8744      0.0000      0.9035      1.3644      1.8710      1.5948      1.5296
     6.0000   1368.0000     27.2742      0.0000      0.9084      1.4011      1.8171      1.6071      1.4970
     6.5000   1368.0000     28.7245      0.0000      0.9148      1.4124      1.7423      1.6019      1.4556
     7.0000   1368.0000     24.6845      4.2981      0.9120      1.3814      1.7034      1.5695      1.4734
     7.5000   1368.0000     22.0412      0.0000      0.8966      1.3475      1.7543      1.5688      1.5770
     8.0000   1368.0000     27.2306      0.0000      0.8866      1.3475      1.8052      1.5915      1.6480
     8.5000   1368.0000     33.7163      0.0000      0.8870      1.3757      1.7872      1.5998      1.6450
     9.0000   1368.0000     33.6815      0.0000      0.8916      1.3898      1.7483      1.5937      1.6125
     9.5000   1368.0000     27.8335      0.0000      0.8975      1.3785      1.7812      1.5875      1.5710
    10.0000   1368.0000     21.3132      0.0000      0.9111      1.3672      1.8052      1.5835      1.4793
    10.5000   1368.0000     17.0754      0.0000      0.9120      1.3701      1.8261      1.6032      1.4734
    11.0000   1368.0000     14.4181      0.0000      0.9049      1.4237      1.7812      1.6283      1.5207
    11.5000   1368.0000     14.8842      0.0000      0.8983      1.4604      1.7693      1.6284      1.5651
    12.0000   1368.0000     16.1225      0.0000      0.8975      1.4915      1.7872      1.6387      1.5710
    12.5000   1368.0000     15.6400      0.0000      0.9040      1.4633      1.7842      1.6259      1.5266
    13.0000   1368.0000     15.9112      0.0000      0.9027      1.4322      1.7992      1.6443      1.5355
    13.5000   1368.0000     18.5654      0.0000      0.8970      1.4350      1.8393      1.6609      1.5740
    14.0000   1368.0000     21.9857      0.0000      0.8895      1.4887      1.9605      1.7009      1.6273
    14.5000   1368.0000     23.9190      0.0000      0.8822      1.5367      1.9514      1.7306      1.6806
    15.0000   1368.0000     24.3729      0.0000      0.8794      1.5169      1.9060      1.7463      1.7013
    15.5000   1368.0000     22.5780      0.0000      0.8830      1.5141      1.9129      1.7279      1.6746
    16.0000   1368.0000     20.7136      0.0000      0.8846      1.4578      1.8919      1.6664      1.6628
    16.5000   1368.0000     19.9053      0.0000      0.8763      1.4129      1.8052      1.6134      1.7249
    17.0000   1368.0000     20.5079      0.0000      0.8790      1.4068      1.7842      1.5915      1.7042
    17.5000   1368.0000     22.5010      0.0000      0.8830      1.3842      1.8441      1.6147      1.6746
    18.0000   1368.0000     22.2600      0.0000      0.8941      1.4350      1.8860      1.6384      1.5947
    18.5000   1368.0000     20.6004      0.0000      0.8945      1.4717      1.9458      1.6657      1.5918
    19.0000   1368.0000     21.2779      0.0000      0.8916      1.4463      2.0355      1.6893      1.6125
    19.5000   1368.0000     21.4501      0.0000      0.8983      1.3559      2.0475      1.6640      1.5651
    20.0000   1368.0000     20.2224      0.0000      0.9084      1.2542      1.9578      1.6083      1.4970
    20.5000   1368.0000     18.7217      0.0000      0.9190      1.2288      1.8321      1.5580      1.4290
    21.0000   1368.0000     18.2565      0.0000      0.9185      1.2684      1.7573      1.5264      1.4319
    21.5000   1368.0000     18.9700      0.0000      0.9148      1.3164      1.7483      1.5214      1.4556
    22.0000   1368.0000     19.1554      0.0000      0.9066      1.3362      1.7334      1.5314      1.5089
    22.5000   1368.0000     19.1536      0.0000      0.9018      1.3305      1.6945      1.5303      1.5414
    23.0000   1368.0000     18.7819      0.0000      0.9040      1.3333      1.7045      1.5507      1.5266
    23.5000   1368.0000     17.5807      0.0000      0.9084      1.3333      1.6901      1.5507      1.4970
    24.0000   1368.0000     17.3171      0.0000      0.9018      1.3898      1.7074      1.5868      1.5414
    24.5000   1368.0000     18.8931      0.0000      0.8949      1.4520      1.7633      1.6236      1.5888
    25.0000   1368.0000     21.7255      0.0000      0.8979      1.3983      1.7106      1.5821      1.5681
    25.5000   1368.0000     22.7990      0.0000      0.9139      1.3023      1.6518      1.4879      1.4615
    26.0000   1368.0000     21.7378      0.0000      0.9062      1.3362      1.7214      1.5336      1.5118
    26.5000   1368.0000     21.3129      0.0000      0.8814      1.4689      1.8680      1.6703      1.6865
    27.0000   1368.0000     21.7265      0.0000      0.8649      1.5678      1.9757      1.7352      1.8137
    27.5000   1368.0000     19.7129      0.0000      0.8739      1.4576      1.8889      1.6161      1.7427
    28.0000   1368.0000     16.0427      0.0000      0.9001      1.2881      1.6945      1.4553      1.5533
    28.5000   1368.0000     14.6221      0.0000      0.9153      1.2571      1.6227      1.4360      1.4526
    29.0000   1368.0000     15.5318      0.0000      0.9185      1.3249      1.7364      1.5001      1.4319
    29.5000   1368.0000     16.5989      0.0000      0.9214      1.3644      1.7842      1.5334      1.4142
    30.0000   1368.0000     18.8614      0.0000      0.9176      1.3362      1.7992      1.5214      1.4378
    30.5000   1368.0000     21.4685      0.0000      0.9022      1.3644      1.8201      1.5693      1.5385
    31.0000   1368.0000     22.4473      0.0000      0.8883      1.4689      1.9458      1.7002      1.6362
    31.5000   1368.0000     22.8498      0.0000      0.8945      1.5466      1.9428      1.7480      1.5918
    32.0000   1368.0000     21.5491      0.0000      0.8992      1.5279      1.9368      1.7599      1.5592
    32.5000   1368.0000     18.8916      0.0000      0.8945      1.5186      1.9069      1.7404      1.5918
    33.0000   1368.0000     18.6209      0.0000      0.8862      1.4938      1.8620      1.6884      1.6510
    33.5000   1368.0000     18.8183      0.0000      0.8834      1.4972      1.8740      1.6550      1.6717
    34.0000   1368.0000     16.4765      0.0000      0.8899      1.3757      1.9009      1.6072      1.6243
    34.5000   1368.0000     14.1455      0.0000      0.8874      1.4576      1.9937      1.6735      1.6421
    35.0000   1368.0000     15.6107      0.0000      0.8786      1.5311      1.9817      1.7112      1.7072
    35.5000   1368.0000     19.3102      0.0000      0.8878      1.4548      1.8770      1.6359      1.6391
    36.0000   1368.0000     22.3950      0.0000      0.9062      1.3192      1.7244      1.5127      1.5118
    36.5000   1368.0000     23.9849      0.0000      0.9214      1.2627      1.6287      1.4498      1.4142
    37.0000   1368.0000     23.3490      0.0000      0.9242      1.2938      1.6053      1.4539      1.3964
