~Version Information
VERS.                      2.0: CWLS Log ASCII Standard - VERSION 2.0
WRAP.                       NO: One line per depth step
~Well Information Block
STRT.FT                 0.0000: START DEPTH
STOP.FT             10100.0000: STOP DEPTH
STEP.FT                 0.5000: STEP
NULL.                -999.2500: NULL VALUE
COMP.          Marathon Oil Company: COMPANY
WELL.          Packineau USA 21-3H: WELL
FLD.               Reunion Bay: FIELD
LOC.           LOT 3--405' FNL & 2237' FWL----: LOCATION
CNTY.                Mountrail: COUNTY
DATE.          Wed Feb 11 13-14-57 2015: LOG DATE
UWI.              33-061-03367: UNIQUE WELL ID
STAT.                       ND: STATE
~Curve Information Block
DEPT.FT            0 000 00 00: Depth
TT3FT.USEC                   0: 3FT Travel Time
GK1.GAPI                     0: Gamma Ray
CCL.                         0: Casing Collar Locator
BONDIX.                      0: Bond Index
AMPMIN.                      0: Minimum Sector Amplitude
AMPMAX.                      0: Maximum Sector Amplitude
AMPAVG.                      0: Average Sector Amplitude
AMP3FT.MV                    0: AMP3FT Amplitude
~Parameter Information Block
~A  Depth      TT3FT        GK1         CCL        BONDIX      AMPMIN      AMPMAX      AMPAVG      AMP3FT   
# ...
  5362.5000    290.4617      9.8257      0.0000      0.2032     31.4359     36.1247     33.7377     33.4782
  5363.0000    290.5310     11.2105      0.0000      0.2058     30.9187     35.8165     33.3024     33.0875
  5363.5000    291.1395     13.3783      0.0000      0.2055     31.1126     36.0080     33.3907     33.1349
  5364.0000    293.7227     11.4896      0.0000      0.2198     29.3585     34.0573     31.4380     31.1163
  5364.5000    297.2299      8.0791      0.0000      0.2547     24.8950     29.4499     27.0020     26.6824
  5365.0000    299.3006      8.0652      0.0000      0.3105     19.2974     23.0772     21.1173     20.8604
  5365.5000    299.2110      9.9429     -7.3376      0.3432     16.5003     20.0199     18.2990     18.0663
  5366.0000    298.7994     11.5036      0.0000      0.3446     16.5143     19.9174     18.2457     17.9538
  5366.5000    298.4451     12.9997      0.0000      0.3116     18.9269     23.2982     21.1361     20.7627
  5367.0000    296.6423     13.6018      0.0000      0.2626     23.3309     29.1705     26.2262     25.7619
  5367.5000    293.4407     12.9519      0.0000      0.2301     26.8310     33.8132     30.2294     29.7340
  5368.0000    290.9810     11.3386      0.0000      0.2175     28.1869     35.7335     31.8182     31.4300
  5368.5000    290.2360     12.0238      0.0000      0.2243     27.0965     34.8353     30.8510     30.5065
  5369.0000    290.2761     13.1009      0.0000      0.2269     26.5739     34.5008     30.5110     30.1543
  5369.5000    290.2895     11.6802      0.0000      0.2270     26.4552     34.5039     30.4839     30.1425
  5370.0000    290.2205      9.8567      0.0000      0.2233     26.8790     34.9468     30.8627     30.6309
  5370.5000    290.1924      9.6304      0.0000      0.2210     27.2095     35.3153     31.1425     30.9535
  5371.0000    290.2726     12.0705      0.0000      0.2213     27.1756     35.2534     31.1227     30.9032
  5371.5000    290.4207     12.9851      0.0000      0.2233     26.9411     34.9406     30.8940     30.6427
  5372.0000    290.4697      9.7492      0.0000      0.2248     26.6360     34.8043     30.6897     30.4414
  5372.5000    290.4213      6.5844      0.0000      0.2261     26.4242     34.8446     30.5630     30.2609
  5373.0000    290.3767      7.6727      0.0000      0.2289     26.1671     34.6030     30.2802     29.8850
  5373.5000    290.3729     12.2078      0.0000      0.2325     25.9100     33.9495     29.8039     29.4262
  5374.0000    290.3471     15.6065      0.0000      0.2349     25.6840     33.3114     29.3547     29.1154
  5374.5000    290.2435     17.1252      0.0000      0.2386     25.4581     32.5340     28.8295     28.6418
  5375.0000    290.1836     18.0317      0.0000      0.2493     24.4580     30.9607     27.5483     27.3158
  5375.5000    290.1746     18.8648      0.0000      0.2638     22.9326     29.2324     25.9359     25.6257
  5376.0000    290.2188     19.6955      0.0000      0.2776     21.5088     27.6993     24.4271     24.1221
  5376.5000    290.2944     19.9604      0.0000      0.2912     20.1868     26.2281     23.0175     22.7192
  5377.0000    290.8016     20.1748      0.0000      0.3136     18.3562     23.6481     20.8411     20.5762
  5377.5000    291.7260     18.2545      0.0000      0.3432     16.2065     20.6531     18.3092     18.0604
  5378.0000    292.5245     18.0337      0.0000      0.3646     14.7319     18.6461     16.6286     16.4413
  5378.5000    292.5593     24.8403      0.0000      0.3646     14.5652     18.4851     16.5628     16.4354
  5379.0000    292.2925     28.9662      0.0000      0.3602     14.6584     18.9032     16.8510     16.7580
  5379.5000    291.8763     23.1740      0.0000      0.3552     15.1161     19.4050     17.2727     17.1369
  5380.0000    291.3806     16.4845      0.0000      0.3456     16.0681     20.1793     18.0694     17.8769
  5380.5000    291.1156     14.3698      0.0000      0.3346     17.1019     20.9938     18.9930     18.7648
  5381.0000    290.9942     16.2441      0.0000      0.3270     17.5095     21.6071     19.6569     19.4041
  5381.5000    291.0598     16.0552      0.0000      0.3277     17.1440     21.7672     19.6385     19.3390
  5382.0000    291.2364     13.7094      0.0000      0.3315     16.7786     21.6411     19.3825     19.0223
  5382.5000    291.3294     12.4676      0.0000      0.3280     17.2347     22.1925     19.7112     19.3124
  5383.0000    291.1505     11.2582      0.0000      0.3119     18.4240     23.9610     21.1219     20.7331
  5383.5000    290.5282     11.1589      0.0000      0.2890     20.2178     26.7144     23.3001     22.9412
  5384.0000    289.9684     20.7144      0.0000      0.2705     21.5738     29.5174     25.3096     24.8887
  5384.5000    289.7809     43.8330      0.0000      0.2588     22.3278     31.5460     26.7675     26.1970
  5385.0000    289.9161     67.0606      0.0000      0.2515     23.1671     32.6579     27.7028     27.0524
  5385.5000    290.1933     74.7741      0.0000      0.2465     23.8846     33.1132     28.2756     27.6592
  5386.0000    290.3358     67.5460      0.0000      0.2458     24.3366     32.6579     28.2309     27.7509
  5386.5000    290.5639     56.2265      0.0000      0.2538     23.5984     31.0536     27.1845     26.7831
  5387.0000    290.7782     48.4085      0.0000      0.2646     22.5639     29.3222     25.8782     25.5370
  5387.5000    290.7722     39.6096      0.0000      0.2695     22.0889     28.7833     25.3197     24.9953
  5388.0000    290.6866     33.9422      0.0000      0.2701     21.9467     28.8886     25.2507     24.9331
  5388.5000    290.5491     33.9838      0.0000      0.2674     22.0964     29.2107     25.5173     25.2291
  5389.0000    290.3386     34.7598      0.0000      0.2608     22.7382     29.8395     26.2672     25.9691
  5389.5000    290.2712     34.3131      0.0000      0.2565     23.2583     30.1802     26.8591     26.4634
  5390.0000    290.3020     32.2368      0.0000      0.2553     23.7081     30.2731     27.1537     26.6084
  5390.5000    290.4240     26.5818      0.0000      0.2567     23.6996     30.0718     26.9965     26.4486
  5391.0000    290.6230     25.8248      0.0000      0.2591     23.2527     29.7373     26.5736     26.1615
  5391.5000    290.6461     32.9683      0.0000      0.2595     22.9828     29.8642     26.4690     26.1200
  5392.0000    290.5934     44.5842      0.0000      0.2574     23.1571     30.4899     26.7961     26.3628
  5392.5000    290.5130     56.9487      0.0000      0.2506     23.9077     31.6142     27.6407     27.1678
  5393.0000    290.4145     59.8601      0.0000      0.2405     25.0125     33.0389     28.8447     28.3991
  5393.5000    290.3292     52.2276      0.0000      0.2318     26.0357     34.2747     30.0018     29.5120
  5394.0000    290.2615     45.3269      0.0000      0.2250     26.7273     35.1450     30.8935     30.4089
  5394.5000    290.2805     43.6757      0.0000      0.2205     27.1180     35.6096     31.3677     31.0245
  5395.0000    290.2192     41.9181      0.0000      0.2185     27.4638     35.6994     31.5681     31.2968
  5395.5000    290.2089     37.5242      0.0000      0.2260     26.9212     34.4202     30.6846     30.2786
  5396.0000    290.3103     32.7155      0.0000      0.2410     25.4875     32.1833     28.8866     28.3370
  5396.5000    290.5288     33.5212      0.0000      0.2580     23.6687     30.1845     26.9173     26.2976
  5397.0000    290.8059     39.2985      0.0000      0.2788     21.4029     27.9654     24.5955     23.9949
  5397.5000    292.8251     43.1786      0.0000      0.3101     18.4287     24.6909     21.4157     20.8989
  5398.0000    301.7297     45.0184      0.0000      0.3640     14.4650     19.5140     16.8219     16.4798
  5398.5000    317.5631     52.9867      0.0000      0.4349     10.6587     14.0514     12.2243     12.0578
  5399.0000    330.7181     64.9187      0.0000      0.5039      7.9082     10.1315      8.9256      8.8996
  5399.5000    353.3859     69.2590      0.0000      0.5617      6.0966      7.6782      6.8149      6.8988
