~Version Information
VERS.                      2.0: CWLS Log ASCII Standard - VERSION 2.0
WRAP.                       NO: One line per depth step
~Well Information Block
STRT.FT                 0.0000: START DEPTH
STOP.FT             10100.0000: STOP DEPTH
STEP.FT                 0.5000: STEP
NULL.                -999.2500: NULL VALUE
COMP.          Marathon Oil Company: COMPANY
WELL.          Packineau USA 21-3H: WELL
FLD.               Reunion Bay: FIELD
LOC.           LOT 3--405' FNL & 2237' FWL----: LOCATION
CNTY.                Mountrail: COUNTY
DATE.          Wed Feb 11 13-14-57 2015: LOG DATE
UWI.              33-061-03367: UNIQUE WELL ID
STAT.                       ND: STATE
~Curve Information Block
DEPT.FT            0 000 00 00: Depth
TT3FT.USEC                   0: 3FT Travel Time
GK1.GAPI                     0: Gamma Ray
CCL.                         0: Casing Collar Locator
BONDIX.                      0: Bond Index
AMPMIN.                      0: Minimum Sector Amplitude
AMPMAX.                      0: Maximum Sector Amplitude
AMPAVG.                      0: Average Sector Amplitude
AMP3FT.MV                    0: AMP3FT Amplitude
~Parameter Information Block
~A  Depth      TT3FT        GK1         CCL        BONDIX      AMPMIN      AMPMAX      AMPAVG      AMP3FT   
# ...
  2662.5000    294.4466     49.2414      0.0000      0.4012     12.9620     15.1622     14.0367     13.9906
  2663.0000    294.4391     52.9685      0.0000      0.4004     13.1114     15.0048     14.0220     14.0379
  2663.5000    294.3035     56.6165      0.0000      0.3993     13.1889     14.9833     14.0416     14.1060
  2664.0000    293.8581     57.1136      0.0000      0.3953     13.4769     15.2432     14.3110     14.3576
  2664.5000    293.3232     56.2550      0.0000      0.3886     13.8579     15.6923     14.8065     14.7868
  2665.0000    292.7343     55.6348      0.0000      0.3777     14.5021     16.5143     15.5744     15.5149
  2665.5000    292.0852     57.5289      0.0000      0.3644     15.4698     17.5938     16.5040     16.4502
  2666.0000    291.5010     61.8118      0.0000      0.3527     16.2675     18.6283     17.4336     17.3234
  2666.5000    291.0726     62.7990      0.0000      0.3453     16.7423     19.4267     18.1006     17.9005
  2667.0000    290.9500     62.0576      0.0000      0.3414     17.0372     19.9243     18.4905     18.2054
  2667.5000    291.0750     62.3961      0.0000      0.3396     17.3414     19.9946     18.6659     18.3504
  2668.0000    291.2090     59.5256      0.0000      0.3407     17.4065     19.7742     18.5400     18.2646
  2668.5000    291.3325     53.9729      0.0000      0.3438     17.2420     19.5755     18.2652     18.0189
  2669.0000    291.3727     51.6926      0.0000      0.3449     17.0931     19.4574     18.0517     17.9331
  2669.5000    291.1874     55.1471      0.0000      0.3418     17.1924     19.5323     18.1520     18.1758
  2670.0000    291.0523     61.9959      0.0000      0.3400     17.3030     19.5697     18.2589     18.3238
  2670.5000    291.0287     62.6947      0.0000      0.3428     17.0157     19.4286     18.0933     18.0959
  2671.0000    291.2048     58.7604      0.0000      0.3493     16.4248     18.9130     17.5880     17.5868
  2671.5000    291.4362     57.5074      0.0000      0.3553     15.9093     18.1959     17.0397     17.1251
  2672.0000    291.3894     57.5888      0.0000      0.3546     16.0454     17.8388     16.9969     17.1783
  2672.5000    291.5474     58.2693      0.0000      0.3572     15.9672     17.6890     16.8635     16.9830
  2673.0000    291.8213     60.3803      0.0000      0.3618     15.8832     17.5594     16.6577     16.6456
  2673.5000    292.0901     62.1349      0.0000      0.3649     15.7963     17.3463     16.4526     16.4147
  2674.0000    291.9875     63.1236      0.0000      0.3609     16.1641     17.5335     16.7345     16.7107
  2674.5000    291.6591     61.0647      0.0000      0.3541     16.4972     17.9309     17.1535     17.2168
  2675.0000    291.6259     55.4631      0.0000      0.3541     16.4045     17.9885     17.1414     17.2139
  2675.5000    291.7485     49.8484      0.0000      0.3570     16.1242     17.8445     16.9031     16.9948
  2676.0000    291.8282     45.9273      0.0000      0.3580     16.0733     17.8560     16.8767     16.9208
  2676.5000    291.7102     44.9445      0.0000      0.3537     16.4711     18.0231     17.2462     17.2464
  2677.0000    291.5708     46.1929      0.0000      0.3484     17.0620     18.2466     17.6720     17.6519
  2677.5000    291.3916     44.9875      0.0000      0.3423     17.8179     18.6988     18.1742     18.1344
  2678.0000    291.1482     41.2849      0.0000      0.3384     18.2929     18.8320     18.5450     18.4511
  2678.5000    290.9829     39.5194      0.0000      0.3372     18.4638     18.9505     18.7119     18.5487
  2679.0000    290.8229     41.9508      0.0000      0.3358     18.4957     19.0323     18.7935     18.6612
  2679.5000    290.8699     46.1668      0.0000      0.3380     18.0540     19.0168     18.5576     18.4807
  2680.0000    291.2790     46.7656      0.0000      0.3486     17.0653     18.4230     17.7485     17.6371
  2680.5000    291.9692     51.0593      0.0000      0.3667     15.7432     17.0416     16.4537     16.2874
  2681.0000    292.4580     59.1743      0.0000      0.3792     14.9748     15.9702     15.5780     15.4113
  2681.5000    292.5780     59.8854      0.0000      0.3840     14.7968     15.6109     15.2747     15.0887
  2682.0000    292.5107     58.7113      0.0000      0.3846     14.9692     15.6171     15.3420     15.0532
  2682.5000    292.4348     62.0568      0.0000      0.3841     15.0567     15.6481     15.3616     15.0857
  2683.0000    292.1785     62.2140      0.0000      0.3790     15.2799     15.9299     15.5756     15.4261
  2683.5000    292.0587     60.2382      0.0000      0.3753     15.2940     16.0786     15.6900     15.6836
  2684.0000    292.2263     58.9536      0.0000      0.3760     15.2149     16.2448     15.6926     15.6333
  2684.5000    292.4970     55.3746      0.0000      0.3793     14.9918     16.0848     15.5569     15.4083
  2685.0000    296.2323     51.9667      0.0000      0.3866     14.4635     15.9085     15.2927     14.9200
  2685.5000    300.4489     52.5668      0.0000      0.3807     14.7573     16.7416     15.8361     15.3107
  2686.0000    307.1641     57.2257      0.0000      0.3814     14.6613     16.7538     15.7291     15.2663
  2686.5000    312.7244     57.8601      0.0000      0.3920     14.0398     15.3905     14.7938     14.5677
  2687.0000    313.7724     52.8488      0.0000      0.4075     13.2076     14.2932     13.6270     13.6088
  2687.5000    307.5450     55.6465    -10.9656      0.4134     12.5653     14.2513     13.2989     13.2595
  2688.0000    304.6899     64.4880      0.0000      0.3951     13.3717     15.5138     14.3882     14.3694
  2688.5000    306.2633     63.0918      0.0000      0.3659     15.2726     17.2790     16.3019     16.3437
  2689.0000    304.2403     55.8367      0.0000      0.3249     18.5934     19.9965     19.4320     19.5788
  2689.5000    297.5165     54.6030      0.0000      0.3094     20.3783     21.5358     20.9165     20.9669
  2690.0000    291.2582     58.5567      0.0000      0.2996     21.1487     22.6942     21.9318     21.8904
  2690.5000    290.2162     61.5876      0.0000      0.2997     20.9184     22.9915     21.9599     21.8845
  2691.0000    290.0683     66.1888      0.0000      0.2996     20.4893     23.6077     21.9408     21.8875
  2691.5000    290.1764     72.0151      0.0000      0.3029     19.8146     23.6357     21.5882     21.5708
  2692.0000    290.3871     71.3773      0.0000      0.3081     19.2637     23.0677     21.0733     21.0883
  2692.5000    290.7022     66.8252      0.0000      0.3180     18.5046     21.8541     20.1177     20.1885
  2693.0000    291.0125     62.6680      0.0000      0.3315     17.6529     20.2868     18.9451     19.0164
  2693.5000    291.2064     59.4257      0.0000      0.3426     16.9585     19.2447     18.0742     18.1136
  2694.0000    291.3961     56.9044      0.0000      0.3502     16.4947     18.6583     17.5295     17.5187
  2694.5000    291.4931     54.5451      0.0000      0.3545     16.2951     18.0629     17.1730     17.1872
  2695.0000    291.6987     54.6844      0.0000      0.3591     16.1742     17.3658     16.8212     16.8409
  2695.5000    291.9008     58.9695      0.0000      0.3630     15.8929     17.2369     16.5548     16.5568
  2696.0000    292.0493     60.9340      0.0000      0.3648     15.5539     17.3267     16.4425     16.4265
  2696.5000    291.9771     57.6714      0.0000      0.3627     15.4918     17.5807     16.5519     16.5775
  2697.0000    291.8620     53.1561      0.0000      0.3588     15.7460     17.8842     16.8084     16.8646
  2697.5000    291.7650     49.4613      0.0000      0.3541     16.2023     18.1785     17.1502     17.2139
  2698.0000    291.7668     49.7295      0.0000      0.3513     16.1742     18.2304     17.3064     17.4299
  2698.5000    292.0268     55.7734      0.0000      0.3549     15.7610     18.2454     17.0199     17.1576
  2699.0000    292.4421     61.2598      0.0000      0.3629     15.2184     17.7069     16.4674     16.5656
  2699.5000    292.7736     60.5710      0.0000      0.3706     14.8333     17.1594     16.0187     16.0122
