~Version Information
VERS.                      2.0: CWLS Log ASCII Standard - VERSION 2.0
WRAP.                       NO: One line per depth step
~Well Information Block
STRT.FT                 0.0000: START DEPTH
STOP.FT             10100.0000: STOP DEPTH
STEP.FT                 0.5000: STEP
NULL.                -999.2500: NULL VALUE
COMP.          Marathon Oil Company: COMPANY
WELL.          Packineau USA 21-3H: WELL
FLD.               Reunion Bay: FIELD
LOC.           LOT 3--405' FNL & 2237' FWL----: LOCATION
CNTY.                Mountrail: COUNTY
DATE.          Wed Feb 11 13-14-57 2015: LOG DATE
UWI.              33-061-03367: UNIQUE WELL ID
STAT.                       ND: STATE
~Curve Information Block
DEPT.FT            0 000 00 00: Depth
TT3FT.USEC                   0: 3FT Travel Time
GK1.GAPI                     0: Gamma Ray
CCL.                         0: Casing Collar Locator
BONDIX.                      0: Bond Index
AMPMIN.                      0: Minimum Sector Amplitude
AMPMAX.                      0: Maximum Sector Amplitude
AMPAVG.                      0: Average Sector Amplitude
AMP3FT.MV                    0: AMP3FT Amplitude
~Parameter Information Block
~A  Depth      TT3FT        GK1         CCL        BONDIX      AMPMIN      AMPMAX      AMPAVG      AMP3FT   
# ...
  6712.5000    290.1524     44.5808      0.0000      0.2050     30.1989     37.1599     33.6753     33.2148
  6713.0000    290.1209     51.0192      0.0000      0.2051     30.2080     37.0193     33.5801     33.1941
  6713.5000    289.9945     50.5509      0.0000      0.2024     30.8199     37.4087     34.0519     33.5907
  6714.0000    289.8716     43.2638      0.0000      0.1993     31.2259     37.9737     34.5112     34.0495
  6714.5000    289.8065     38.3883      0.0000      0.1978     31.2229     38.3626     34.6384     34.2744
  6715.0000    289.8499     41.5854      0.0000      0.1987     30.9441     38.3357     34.3961     34.1501
  6715.5000    289.9143     48.4985      0.0000      0.1997     30.8745     38.2220     34.2541     33.9992
  6716.0000    289.9537     50.0091      0.0000      0.2002     31.1290     38.1262     34.3689     33.9222
  6716.5000    289.9493     49.7406      0.0000      0.1994     31.4198     38.1681     34.5807     34.0376
  6717.0000    289.9714     50.9072      0.0000      0.1972     31.9045     38.4075     34.9896     34.3692
  6717.5000    289.9922     46.5777      0.0000      0.1945     32.4466     38.9757     35.5658     34.7895
  6718.0000    289.9180     41.4486      0.0000      0.1906     33.0341     40.0560     36.2622     35.3814
  6718.5000    289.8296     42.4697      0.0000      0.1891     33.1292     40.0936     36.3276     35.6241
  6719.0000    289.8442     43.6006      0.0000      0.1899     32.8346     39.6162     35.9431     35.4880
  6719.5000    289.8513     42.2016      0.0000      0.1903     32.6043     39.4157     35.7997     35.4347
  6720.0000    289.8391     37.7577      0.0000      0.1886     32.6043     39.9393     36.1159     35.6981
  6720.5000    289.8323     34.3377      0.0000      0.1867     32.5013     40.6244     36.4005     36.0000
  6721.0000    289.8513     34.0954      0.0000      0.1871     31.9833     41.0972     36.3064     35.9408
  6721.5000    289.8592     36.9500      0.0000      0.1883     31.6167     41.2946     36.1976     35.7396
  6722.0000    290.0566     41.2468      0.0000      0.1931     31.0229     40.5437     35.6188     34.9966
  6722.5000    290.3273     49.1602      0.0000      0.2000     30.2989     38.9550     34.6078     33.9429
  6723.0000    290.5406     60.1723      0.0000      0.2054     29.8899     37.6375     33.7946     33.1527
  6723.5000    290.7017     63.2667      0.0000      0.2089     29.7899     36.9453     33.3209     32.6495
  6724.0000    290.7617     54.9325      0.0000      0.2090     30.1353     36.7320     33.3216     32.6288
  6724.5000    290.8288     45.0529      0.0000      0.2097     30.1746     36.4356     33.2069     32.5281
  6725.0000    290.9304     39.6222      0.0000      0.2116     29.7899     36.2154     32.9019     32.2588
  6725.5000    291.0200     39.2824      0.0000      0.2140     29.2597     36.1257     32.5898     31.9184
  6726.0000    290.9287     44.6169      0.0000      0.2126     29.3355     36.4124     32.7755     32.1137
  6726.5000    290.7568     52.3564      0.0000      0.2092     30.0474     36.7889     33.3386     32.6021
  6727.0000    290.6531     52.5550      0.0000      0.2072     30.7109     36.8382     33.6894     32.8892
  6727.5000    290.6216     43.3300      0.0000      0.2083     30.7624     36.6644     33.6265     32.7353
  6728.0000    290.5780     32.7421      0.0000      0.2081     30.3413     36.7223     33.4669     32.7531
  6728.5000    290.5901     27.2574      0.0000      0.2079     30.1656     36.7397     33.4557     32.7856
  6729.0000    290.6480     29.7377      0.0000      0.2070     30.3837     36.6731     33.5504     32.9129
  6729.5000    290.7440     38.3975      0.0000      0.2066     30.5442     36.5891     33.5711     32.9839
  6730.0000    290.7397     44.0723      0.0000      0.2050     30.4867     36.9395     33.6764     33.2118
  6730.5000    290.6756     41.7972      0.0000      0.2032     30.4534     37.4811     33.9221     33.4812
  6731.0000    290.5227     33.5417      0.0000      0.1996     31.0987     38.2052     34.5715     34.0110
  6731.5000    290.4229     27.7546      0.0000      0.1958     32.0408     38.5470     35.2524     34.5793
  6732.0000    290.4036     27.6994      0.0000      0.1941     32.6195     38.6049     35.6040     34.8457
  6732.5000    290.3584     26.9091      0.0000      0.1922     32.8316     38.8193     35.8337     35.1387
  6733.0000    290.3238     24.1799      0.0000      0.1917     32.7588     38.7700     35.7432     35.2097
  6733.5000    290.3884     23.3713      0.0000      0.1946     32.2105     38.3558     35.2185     34.7628
  6734.0000    290.4513     29.4819      0.0000      0.1993     31.3319     37.7186     34.4837     34.0524
  6734.5000    290.5256     37.2477      0.0000      0.2031     30.5715     37.2060     33.9362     33.4930
  6735.0000    290.4891     36.6168      0.0000      0.2052     30.1231     36.9453     33.6087     33.1763
  6735.5000    290.5031     33.0839      0.0000      0.2098     29.5657     36.2444     32.9256     32.5133
  6736.0000    290.5698     32.4827      0.0000      0.2158     29.0386     35.3205     32.1287     31.6727
  6736.5000    290.5510     34.5242      0.0000      0.2167     29.2446     34.8368     32.0065     31.5366
  6737.0000    290.5883     36.6405      0.0000      0.2137     30.0965     35.0599     32.4265     31.9598
  6737.5000    290.6080     32.7868      0.0000      0.2108     30.0076     35.6475     32.8318     32.3653
  6738.0000    290.7304     24.1057      0.0000      0.2140     28.6668     35.8085     32.4454     31.9214
  6738.5000    290.7823     19.6637      0.0000      0.2198     27.6798     35.1475     31.5959     31.1163
  6739.0000    290.7594     18.1540      0.0000      0.2237     27.3012     34.6051     31.0170     30.5894
  6739.5000    290.7547     13.6935      0.0000      0.2268     27.1542     34.0486     30.5321     30.1750
  6740.0000    290.8573      9.6256      0.0000      0.2314     26.6989     33.2972     29.9269     29.5683
  6740.5000    291.0356      8.1076      0.0000      0.2376     26.6308     31.9610     29.2095     28.7721
  6741.0000    291.1451      7.4546      0.0000      0.2435     26.5314     30.6333     28.5253     28.0292
  6741.5000    291.1702      7.8088      0.0000      0.2484     25.6283     29.9545     27.8768     27.4313
  6742.0000    291.2340      9.6077      0.0000      0.2537     24.5451     29.5553     27.0848     26.7919
  6742.5000    291.3084     11.5070      0.0000      0.2559     24.1509     29.5637     26.7901     26.5374
  6743.0000    291.3237     10.9172      0.0000      0.2552     24.4271     29.6255     26.9225     26.6173
  6743.5000    291.2459      9.0865      0.0000      0.2482     25.7573     30.2152     27.8478     27.4579
  6744.0000    291.1603      8.9392      0.0000      0.2418     27.2037     30.4271     28.6550     28.2452
  6744.5000    291.1489     10.5085      0.0000      0.2426     27.7783     29.2999     28.5269     28.1446
  6745.0000    291.2347     13.6017      0.0000      0.2590     26.1680     27.2748     26.5600     26.1792
  6745.5000    291.7053     15.3179      0.0000      0.2908     22.7320     23.9479     23.1426     22.7577
  6746.0000    292.4654     12.6072      0.0000      0.3266     19.3895     20.4474     19.7367     19.4367
  6746.5000    293.4711      9.0403      0.0000      0.3592     16.1684     18.0207     17.1112     16.8350
  6747.0000    294.1279      7.2033      0.0000      0.3779     14.3039     17.3400     15.7942     15.5060
  6747.5000    294.3070      7.9678      0.0000      0.3827     13.7804     17.2618     15.4212     15.1775
  6748.0000    293.3872      9.4482      0.0000      0.3621     15.1602     18.8954     16.8907     16.6189
  6748.5000    292.2425      7.3242      0.0000      0.3313     17.5566     21.6150     19.4989     19.0371
  6749.0000    291.4213      3.9247      0.0000      0.3019     20.2408     24.4419     22.2682     21.6714
  6749.5000    291.0692      2.6235      0.0000      0.2819     22.2251     26.6170     24.3025     23.6663
