~Version Information
VERS.                      2.0: CWLS Log ASCII Standard - VERSION 2.0
WRAP.                       NO: One line per depth step
~Well Information Block
STRT.FT                 0.0000: START DEPTH
STOP.FT             10100.0000: STOP DEPTH
STEP.FT                 0.5000: STEP
NULL.                -999.2500: NULL VALUE
COMP.          Marathon Oil Company: COMPANY
WELL.          Packineau USA 21-3H: WELL
FLD.               Reunion Bay: FIELD
LOC.           LOT 3--405' FNL & 2237' FWL----: LOCATION
CNTY.                Mountrail: COUNTY
DATE.          Wed Feb 11 13-14-57 2015: LOG DATE
UWI.              33-061-03367: UNIQUE WELL ID
STAT.                       ND: STATE
~Curve Information Block
DEPT.FT            0 000 00 00: Depth
TT3FT.USEC                   0: 3FT Travel Time
GK1.GAPI                     0: Gamma Ray
CCL.                         0: Casing Collar Locator
BONDIX.                      0: Bond Index
AMPMIN.                      0: Minimum Sector Amplitude
AMPMAX.                      0: Maximum Sector Amplitude
AMPAVG.                      0: Average Sector Amplitude
AMP3FT.MV                    0: AMP3FT Amplitude
~Parameter Information Block
~A  Depth      TT3FT        GK1         CCL        BONDIX      AMPMIN      AMPMAX      AMPAVG      AMP3FT   
# ...
  4012.5000    289.8511     85.0318      0.0000      0.2536     23.7343     30.3504     26.9949     26.8097
  4013.0000    289.7572     95.2010      0.0000      0.2450     24.6617     31.6549     28.1467     27.8427
  4013.5000    289.7005     95.8025      0.0000      0.2368     25.4249     32.7170     29.0825     28.8668
  4014.0000    289.6884     91.9003      0.0000      0.2321     25.8051     33.4829     29.5973     29.4736
  4014.5000    289.6990     91.9579      0.0000      0.2309     26.0989     33.9736     29.8669     29.6304
  4015.0000    289.6923     95.3794      0.0000      0.2302     26.3610     34.3715     30.1303     29.7192
  4015.5000    289.6502     97.8723      0.0000      0.2265     26.6605     34.7604     30.5210     30.2135
  4016.0000    289.5985     98.4770      0.0000      0.2231     26.8650     35.0087     30.8188     30.6664
  4016.5000    289.5982     94.1039      0.0000      0.2232     26.8333     34.8591     30.7197     30.6516
  4017.0000    289.6222     88.2135      0.0000      0.2261     26.4560     34.5271     30.3162     30.2579
  4017.5000    289.6119     83.3707      0.0000      0.2280     25.9750     34.2997     29.9274     30.0122
  4018.0000    289.6214     78.1819      0.0000      0.2311     25.5747     33.9646     29.5729     29.6008
  4018.5000    289.7481     74.4063      0.0000      0.2373     24.9517     33.0820     28.9431     28.8076
  4019.0000    289.8889     72.8186      0.0000      0.2442     24.2549     31.9600     28.1599     27.9374
  4019.5000    289.9770     73.2590      0.0000      0.2490     23.9247     31.1845     27.6192     27.3602
  4020.0000    290.0322     77.2162      0.0000      0.2520     23.7884     30.5908     27.2476     26.9932
  4020.5000    290.1017     83.2010      0.0000      0.2560     23.5611     30.0202     26.8646     26.5226
  4021.0000    290.1571     89.7524      0.0000      0.2598     23.2279     29.4670     26.4608     26.0845
  4021.5000    290.1924     97.0516      0.0000      0.2619     22.9977     29.1716     26.1978     25.8477
  4022.0000    290.1392     99.1231      0.0000      0.2615     22.9371     29.3691     26.2009     25.8862
  4022.5000    290.1071     91.4796      0.0000      0.2624     22.4988     29.8717     26.1241     25.7945
  4023.0000    290.0117     83.6234      0.0000      0.2632     22.0840     30.1500     25.9930     25.7027
  4023.5000    289.9643     82.1455      0.0000      0.2672     21.6232     29.4559     25.4567     25.2498
  4024.0000    290.0067     79.7551      0.0000      0.2752     21.1250     27.9510     24.5329     24.3708
  4024.5000    290.1291     77.3119      0.0000      0.2840     20.8398     26.5089     23.6749     23.4443
  4025.0000    290.2588     75.4426      0.0000      0.2898     20.3044     26.0551     23.1714     22.8553
  4025.5000    290.2557     76.5826      0.0000      0.2892     20.0257     26.2579     23.1268     22.9204
  4026.0000    290.1547     80.6676      0.0000      0.2835     20.3256     26.8024     23.5239     23.4976
  4026.5000    290.1264     80.2258      0.0000      0.2775     20.9103     27.2947     24.0506     24.1310
  4027.0000    290.1772     76.7396      0.0000      0.2757     21.2920     27.4425     24.3441     24.3264
  4027.5000    290.2594     79.2133      0.0000      0.2770     21.3041     27.2252     24.3112     24.1843
  4028.0000    290.2726     84.1267      0.0000      0.2787     21.3011     26.8603     24.1797     24.0067
  4028.5000    290.2207     84.0309      0.0000      0.2788     21.6222     26.3650     24.1332     23.9890
  4029.0000    290.1275     79.8294      0.0000      0.2766     22.3675     26.0696     24.4001     24.2257
  4029.5000    290.0755     76.0004      0.0000      0.2731     23.2673     26.0900     24.8423     24.5987
  4030.0000    290.0326     74.2139      0.0000      0.2683     24.0156     26.4760     25.3665     25.1315
  4030.5000    289.9726     72.8343      0.0000      0.2640     24.2913     27.0022     25.7878     25.6050
  4031.0000    289.8953     75.5635      0.0000      0.2597     24.4579     27.7582     26.2341     26.0934
  4031.5000    289.8603     79.4785      0.0000      0.2564     24.5064     28.4822     26.5616     26.4841
  4032.0000    289.8180     80.8566      0.0000      0.2544     24.3731     29.1687     26.8139     26.7179
  4032.5000    289.7872     81.9394      0.0000      0.2553     23.9610     29.3888     26.7634     26.6055
  4033.0000    289.8643     80.4964      0.0000      0.2600     23.3612     28.8790     26.2433     26.0608
  4033.5000    289.9433     74.8952      0.0000      0.2646     23.0704     28.1955     25.7075     25.5429
  4034.0000    290.0322     69.7495      0.0000      0.2689     22.7704     27.5351     25.1976     25.0575
  4034.5000    290.0580     70.6317      0.0000      0.2726     22.4039     26.9704     24.7378     24.6579
  4035.0000    290.0764     76.7458      0.0000      0.2759     21.9222     26.8410     24.3496     24.2997
  4035.5000    290.1098     80.3479      0.0000      0.2789     21.3223     26.7961     24.0080     23.9771
  4036.0000    290.1638     80.1463      0.0000      0.2794     21.0587     27.0196     23.9922     23.9298
  4036.5000    290.1651     81.1972      0.0000      0.2766     21.4011     27.4454     24.3682     24.2287
  4037.0000    290.0915     84.6200      0.0000      0.2712     22.1403     27.9667     24.9946     24.8029
  4037.5000    290.0307     87.9970      0.0000      0.2659     22.7371     28.5257     25.5856     25.3949
  4038.0000    289.9843     94.3504      0.0000      0.2604     23.2127     29.1832     26.1843     26.0224
  4038.5000    289.9035    102.4405      0.0000      0.2529     24.0550     30.2098     27.1017     26.8896
  4039.0000    289.7679    106.6069      0.0000      0.2440     25.0517     31.6968     28.2829     27.9640
  4039.5000    289.6664    101.8937      0.0000      0.2384     25.4364     32.6645     29.0529     28.6655
  4040.0000    289.6465     95.5903      0.0000      0.2382     25.2607     32.6848     29.0127     28.6951
  4040.5000    289.7075     95.3449      0.0000      0.2452     24.6912     31.2309     27.9970     27.8249
  4041.0000    289.8571     91.2325      0.0000      0.2587     23.8490     28.7111     26.2910     26.2148
  4041.5000    290.1711     80.0743      0.0000      0.2797     22.0585     26.0428     23.9745     23.8913
  4042.0000    290.5010     76.2466      0.0000      0.2999     19.9160     24.1473     21.9589     21.8579
  4042.5000    290.7115     81.6763      0.0000      0.3124     18.3457     23.2236     20.7707     20.6858
  4043.0000    290.6562     87.4790      0.0000      0.3128     18.0205     23.4298     20.7028     20.6502
  4043.5000    290.5027     90.5799      0.0000      0.3075     18.4262     24.0145     21.2108     21.1386
  4044.0000    290.2954     95.8744      0.0000      0.2972     19.5505     24.8281     22.2134     22.1213
  4044.5000    292.1806    102.6128      0.0000      0.2909     20.6098     24.9976     22.8904     22.7488
  4045.0000    296.8599     99.6378      0.0000      0.2770     22.6261     26.0400     24.4540     24.1813
  4045.5000    302.9163     94.8710      0.0000      0.2835     22.3473     25.0462     23.7981     23.5006
  4046.0000    302.5092     92.2839      0.0000      0.3002     20.8545     23.0868     21.9990     21.8312
  4046.5000    299.8437     84.5339      0.0000      0.3271     18.4386     20.3431     19.3751     19.3953
  4047.0000    297.8954     81.8579      4.0247      0.3460     16.8250     18.5609     17.7232     17.8443
  4047.5000    298.1214     88.1259      0.0000      0.3327     17.9059     19.5223     18.8223     18.9158
  4048.0000    298.2655     90.9675      0.0000      0.3163     19.3709     21.1227     20.3253     20.3395
  4048.5000    296.4362     91.0532      0.0000      0.2814     22.4584     25.0211     23.8004     23.7166
  4049.0000    293.6292     92.1317      0.0000      0.2739     22.9219     26.2897     24.6838     24.5128
  4049.5000    291.1959     88.3702      0.0000      0.2651     23.2218     27.8364     25.6451     25.4807
