~Version Information
VERS.                      2.0: CWLS Log ASCII Standard - VERSION 2.0
WRAP.                       NO: One line per depth step
~Well Information Block
STRT.FT                 0.0000: START DEPTH
STOP.FT             10100.0000: STOP DEPTH
STEP.FT                 0.5000: STEP
NULL.                -999.2500: NULL VALUE
COMP.          Marathon Oil Company: COMPANY
WELL.          Packineau USA 21-3H: WELL
FLD.               Reunion Bay: FIELD
LOC.           LOT 3--405' FNL & 2237' FWL----: LOCATION
CNTY.                Mountrail: COUNTY
DATE.          Wed Feb 11 13-14-57 2015: LOG DATE
UWI.              33-061-03367: UNIQUE WELL ID
STAT.                       ND: STATE
~Curve Information Block
DEPT.FT            0 000 00 00: Depth
TT3FT.USEC                   0: 3FT Travel Time
GK1.GAPI                     0: Gamma Ray
CCL.                         0: Casing Collar Locator
BONDIX.                      0: Bond Index
AMPMIN.                      0: Minimum Sector Amplitude
AMPMAX.                      0: Maximum Sector Amplitude
AMPAVG.                      0: Average Sector Amplitude
AMP3FT.MV                    0: AMP3FT Amplitude
~Parameter Information Block
~A  Depth      TT3FT        GK1         CCL        BONDIX      AMPMIN      AMPMAX      AMPAVG      AMP3FT   
# ...
  9375.0000    289.7279     12.3361      0.0000      0.2482     24.3265     32.0995     27.9905     27.4549
  9375.5000    289.9700      8.7939      0.0000      0.2480     24.9072     31.7177     28.1139     27.4727
  9376.0000    290.0813     10.1375      0.0000      0.2447     25.5682     32.1523     28.6488     27.8812
  9376.5000    289.8468     12.1887      0.0000      0.2367     26.2634     33.7290     29.7086     28.8816
  9377.0000    289.4738     12.4857      0.0000      0.2318     26.2662     35.1039     30.3310     29.5150
  9377.5000    289.2839     12.3996      0.0000      0.2354     25.4622     34.7718     29.7521     29.0414
  9378.0000    289.3329     11.7964      0.0000      0.2478     24.1775     32.5930     28.0791     27.4993
  9378.5000    289.3387     11.8002      0.0000      0.2596     23.2555     30.4111     26.5773     26.1052
  9379.0000    289.3260     11.3420      0.0000      0.2655     22.8479     29.3527     25.8506     25.4393
  9379.5000    289.2860     10.4171      0.0000      0.2614     23.3173     29.7841     26.3076     25.8981
  9380.0000    289.3095     11.2194      0.0000      0.2510     24.3659     31.1622     27.5263     27.1116
  9380.5000    289.5296     12.5394      0.0000      0.2437     25.2490     32.3916     28.5652     28.0055
  9381.0000    289.8386     12.2049      0.0000      0.2436     25.0541     32.8283     28.6895     28.0144
  9381.5000    290.0165     12.2345      0.0000      0.2478     24.5484     32.4566     28.2568     27.4964
  9382.0000    290.0004     12.6912      0.0000      0.2511     24.4193     31.7798     27.8595     27.1057
  9382.5000    289.8976     11.8218      0.0000      0.2517     24.4980     31.2801     27.7329     27.0346
  9383.0000    289.9259     12.5389      0.0000      0.2524     24.4896     30.8766     27.5875     26.9488
  9383.5000    290.0091     17.1083      0.0000      0.2528     24.3350     30.9884     27.5662     26.9044
  9384.0000    289.9608     20.6720      0.0000      0.2524     24.1298     31.5408     27.6900     26.9547
  9384.5000    289.7711     18.7502      0.0000      0.2514     23.9077     32.1926     27.8770     27.0642
  9385.0000    289.7083     15.3288      0.0000      0.2550     23.3117     32.0095     27.4487     26.6469
  9385.5000    289.8239     14.1513      0.0000      0.2618     22.4431     30.9946     26.5343     25.8625
  9386.0000    289.7814     13.0397      0.0000      0.2658     21.8836     30.0852     25.8642     25.4097
  9386.5000    289.7673     12.1606      0.0000      0.2669     21.9399     29.6165     25.6585     25.2794
  9387.0000    289.6755     12.3490      0.0000      0.2653     22.2969     29.7127     25.8768     25.4600
  9387.5000    289.5508     11.8291      0.0000      0.2626     22.7045     30.2452     26.2698     25.7708
  9388.0000    289.4326     11.5047      0.0000      0.2596     22.9069     30.6974     26.6150     26.1082
  9388.5000    289.4143     12.9882      0.0000      0.2594     22.7495     30.8797     26.6414     26.1289
  9389.0000    289.4691     14.2965      0.0000      0.2636     22.0945     30.6656     26.1934     25.6583
  9389.5000    289.5039     13.8414      0.0000      0.2690     21.3720     30.2931     25.6267     25.0545
  9390.0000    289.5321     13.1206      0.0000      0.2722     20.9981     30.1783     25.2992     24.6993
  9390.5000    289.4548     14.3456      0.0000      0.2695     21.1415     30.7246     25.5550     24.9983
  9391.0000    289.3567     17.3217      0.0000      0.2633     21.7037     31.5005     26.1932     25.6849
  9391.5000    289.5017     17.2780      0.0000      0.2604     22.1732     31.5564     26.4988     26.0224
  9392.0000    289.8752     14.0587      0.0000      0.2629     22.5246     30.4856     26.2002     25.7293
  9392.5000    290.3049     14.6196      0.0000      0.2716     22.3700     28.5582     25.2778     24.7615
  9393.0000    290.5462     16.5364      0.0000      0.2832     21.4187     26.7901     24.0695     23.5272
  9393.5000    290.5730     17.4552      0.0000      0.2906     21.0572     25.8656     23.3246     22.7784
  9394.0000    290.4609     20.6204      0.0000      0.2905     20.7845     26.2056     23.3200     22.7902
  9394.5000    290.3615     24.6066      0.0000      0.2863     20.6214     27.2484     23.6971     23.2135
  9395.0000    290.1291     24.1975      0.0000      0.2794     20.8407     28.4930     24.3670     23.9327
  9395.5000    290.1317     20.6579      0.0000      0.2776     20.8252     29.0373     24.5729     24.1162
  9396.0000    290.1211     18.0818      0.0000      0.2752     21.0964     29.1674     24.9033     24.3737
  9396.5000    289.9005     16.3495      0.0000      0.2679     21.9427     29.8772     25.7339     25.1759
  9397.0000    289.5973     15.0356      0.0000      0.2624     22.4515     30.5104     26.3035     25.7945
  9397.5000    289.4518     14.8271      0.0000      0.2656     21.9933     29.8835     25.8531     25.4304
  9398.0000    289.9335     15.9805      0.0000      0.2836     20.0761     27.6426     23.9587     23.4917
  9398.5000    290.5566     15.6978      0.0000      0.3049     18.0633     25.3800     21.9735     21.3843
  9399.0000    290.7438     13.9970      0.0000      0.3170     17.1384     24.2595     20.8440     20.2743
  9399.5000    290.5997     14.3527      0.0000      0.3274     16.5368     23.2632     19.9047     19.3627
  9400.0000    290.2328     15.6035      0.0000      0.3397     15.8059     22.0093     18.8183     18.3416
  9400.5000    291.7052     17.6714      0.0000      0.3642     14.0799     20.0074     16.9233     16.4709
  9401.0000    296.3750     17.3710      0.0000      0.3948     11.9490     17.9404     14.8535     14.3931
  9401.5000    306.5840     15.0266      0.0000      0.4334      9.6102     15.5847     12.5541     12.1407
  9402.0000    316.5279     14.1346      0.0000      0.4874      7.1870     12.5772      9.9283      9.5686
  9402.5000    323.3728     15.4113      0.0000      0.5568      4.9999      9.6255      7.3749      7.0468
  9403.0000    326.2972     18.4350      0.0000      0.6155      3.5915      7.9030      5.7467      5.4425
  9403.5000    326.5079     19.0218      0.0000      0.6679      2.4811      6.9263      4.6867      4.3207
  9404.0000    326.4991     18.2477      0.0000      0.7319      1.4972      5.9104      3.7548      3.2582
  9404.5000    326.3472     18.7573      0.0000      0.7820      0.9039      5.1206      3.0616      2.6129
  9405.0000    326.2301     20.8010      0.0000      0.7764      1.0734      4.8976      3.0205      2.6780
  9405.5000    326.3121     23.4961      0.0000      0.6992      2.2317      6.0780      3.9740      3.7643
  9406.0000    326.4918     24.6143      0.0000      0.6172      3.8839      7.8905      5.6154      5.4011
  9406.5000    326.3585     24.3028      0.0000      0.5550      5.5930      9.5355      7.3569      7.1060
  9407.0000    326.1499     24.2184      0.0000      0.5332      6.3211      9.9918      8.0822      7.8222
  9407.5000    326.0883     25.4351      0.0000      0.5316      6.2958      9.7310      8.0573      7.8755
  9408.0000    326.1142     29.1064      0.0000      0.5308      6.3334      9.6983      7.9853      7.9051
  9408.5000    326.0241     31.3963      0.0000      0.5192      6.7882     10.0824      8.3900      8.3165
  9409.0000    325.7695     28.8202      0.0000      0.5362      6.1639      9.5992      7.8277      7.7186
  9409.5000    325.2027     23.7862      0.0000      0.5591      5.1978      9.1873      7.1284      6.9757
  9410.0000    325.1095     18.8928      0.0000      0.5603      4.7402      9.6178      7.0636      6.9402
  9410.5000    324.4071     16.2387      0.0000      0.5232      5.4718     11.5442      8.2920      8.1745
  9411.0000    318.2716     14.4183      0.0000      0.4663      7.2967     14.7561     10.6879     10.5039
  9411.5000    305.5984     14.0698      0.0000      0.4136      9.5905     18.2931     13.4896     13.2477
  9412.0000    294.7895     18.0931      0.0000      0.3672     12.2431     21.7155     16.5243     16.2519
